Geo Point;Geo Shape;gml_id;id;nom;code_insee;nom_com;longitude;latitude
47.67361459304445, -2.064492018699983;"{""coordinates"": [-2.064492018699983, 47.67361459304445], ""type"": ""Point""}";arret_logique_reseau_breizhgo_car.D562000043;D562000043;Zone Cap Nord;35236;Redon;-2.064492;47.673615
48.60804138559548, -3.2712007411913464;"{""coordinates"": [-3.271200741191346, 48.60804138559548], ""type"": ""Point""}";arret_logique_reseau_breizhgo_car.D221500624;D221500624;PEDERNEC Sornel;22310;Saint-Laurent;-3.27105;48.60804
48.40787615825987, -2.624062387327026;"{""coordinates"": [-2.624062387327026, 48.40787615825987], ""type"": ""Point""}";arret_logique_reseau_breizhgo_car.D221500906;D221500906;St-Blaise chapelle;22258;Quessoy;-2.6239421;48.407887
48.495628124311295, -2.7503423753102942;"{""coordinates"": [-2.750342375310294, 48.495628124311295], ""type"": ""Point""}";arret_logique_reseau_breizhgo_car.D221501013;D221501013;ST BRIEUC Proust;22278;Saint-Brieuc;-2.749593;48.494778
48.48521227015075, -2.681627927908184;"{""coordinates"": [-2.681627927908184, 48.48521227015075], ""type"": ""Point""}";arret_logique_reseau_breizhgo_car.D221501324;D221501324;Val Josselin;22389;Yffiniac;-2.6816669;48.485226
48.20139318724751, -2.9880375989469643;"{""coordinates"": [-2.988037598946964, 48.20139318724751], ""type"": ""Point""}";arret_logique_reseau_breizhgo_car.D221500474;D221500474;Pl. Ste-Suzanne;22158;Guerlédan;-2.9878535;48.201588
48.56712381154994, -3.8227726809999774;"{""coordinates"": [-3.822772680999977, 48.56712381154994], ""type"": ""Point""}";arret_logique_reseau_breizhgo_car.D29504533;D29504533;Lycée Tristan Corbière;29207;Plourin-lès-Morlaix;-3.8227727;48.567123
48.165074210523585, -1.190859826306718;"{""coordinates"": [-1.190859826306718, 48.165074210523585], ""type"": ""Point""}";arret_logique_reseau_breizhgo_car.D352657;D352657;BALAZE Croix Verte;35015;Balazé;-1.1911963;48.164597
47.584494201800496, -3.0826995650230997;"{""coordinates"": [-3.0826995650231, 47.584494201800496], ""type"": ""Point""}";arret_logique_reseau_breizhgo_car.D562000387;D562000387;Place Illertissen;56034;Carnac;-3.082676;47.584488
48.43930385990503, -2.156092424317591;"{""coordinates"": [-2.156092424317591, 48.43930385990503], ""type"": ""Point""}";arret_logique_reseau_breizhgo_car.D221501317;D221501317;Mairie;22388;Vildé-Guingalan;-2.1560578;48.439255
47.91664323155689, -4.363387865724205;"{""coordinates"": [-4.363387865724205, 47.91664323155689], ""type"": ""Point""}";arret_logique_reseau_breizhgo_car.D29504740;D29504740;Bourg;29214;Plovan;-4.363438;47.91662
48.19145874031698, -2.411683792790591;"{""coordinates"": [-2.411683792790591, 48.19145874031698], ""type"": ""Point""}";arret_logique_reseau_breizhgo_car.D35ARCOM@MERMAI;D35ARCOM@MERMAI;Merdrignac Mairie;22147;Merdrignac;-2.41167;48.1915
47.681954395074534, -2.7653832448105824;"{""coordinates"": [-2.765383244810582, 47.681954395074534], ""type"": ""Point""}";arret_logique_reseau_breizhgo_car.DREGLRRNS:ST:VAN1D1;DREGLRRNS:ST:VAN1D1;Vannes Kerniol;56206;Saint-Avé;-2.765265;47.682167
48.326299999048345, -1.8422399999999657;"{""coordinates"": [-1.84224, 48.326299999048345], ""type"": ""Point""}";arret_logique_reseau_breizhgo_car.D35ARCOM@TINCPUB;D35ARCOM@TINCPUB;Tinténiac Collège Public;35337;Tinténiac;-1.84224;48.3263
48.54646420584978, -3.395391957599942;"{""coordinates"": [-3.395391957599942, 48.54646420584978], ""type"": ""Point""}";arret_logique_reseau_breizhgo_car.D221500019;D221500019;Collège;22005;Belle-Isle-en-Terre;-3.395392;48.546463
48.57117642864996, -4.419271114299969;"{""coordinates"": [-4.419271114299969, 48.57117642864996], ""type"": ""Point""}";arret_logique_reseau_breizhgo_car.D29501967;D29501967;Bourg;29093;Kernilis;-4.419271;48.571175
47.783279471245095, -2.1062110921999584;"{""coordinates"": [-2.106211092199958, 47.783279471245095], ""type"": ""Point""}";arret_logique_reseau_breizhgo_car.D562000127;D562000127;La Chapelle-Gaceline/Église;56061;La Gacilly;-2.1062112;47.78328
48.24818710965807, -4.41940036938156;"{""coordinates"": [-4.41940036938156, 48.24818710965807], ""type"": ""Point""}";arret_logique_reseau_breizhgo_car.D29501016;D29501016;Tal ar Groas - Route de Crozon;29042;Crozon;-4.4193554;48.24818
48.19930906921532, -1.733929827816648;"{""coordinates"": [-1.733929827816648, 48.19930906921532], ""type"": ""Point""}";arret_logique_reseau_breizhgo_car.D35MEZMONT2;D35MEZMONT2;La Mézière /Montgerval;35177;La Mézière;-1.73396;48.1993
47.698101905647846, -2.9028182004180243;"{""coordinates"": [-2.902818200418024, 47.698101905647846], ""type"": ""Point""}";arret_logique_reseau_breizhgo_car.D562000054;D562000054;Plumergat/Mériadec St-Roch;56176;Pluneret;-2.9028525;47.69804
48.45401235784645, -2.048124006909059;"{""coordinates"": [-2.048124006909059, 48.45401235784645], ""type"": ""Point""}";arret_logique_reseau_breizhgo_car.D221500175;D221500175;Place Duclos;22050;Dinan;-2.0481224;48.454014
48.350588436650064, -4.763753746410449;"{""coordinates"": [-4.763753746410449, 48.350588436650064], ""type"": ""Point""}";arret_logique_reseau_breizhgo_car.D29500936;D29500936;Kervidré;29040;Le Conquet;-4.7637696;48.350555
48.416169831079486, -2.8442747419570225;"{""coordinates"": [-2.844274741957022, 48.416169831079486], ""type"": ""Point""}";arret_logique_reseau_breizhgo_car.D221501038;D221501038;ST BRANDAN Le Rillan;22277;Saint-Brandan;-2.8446927;48.415813
47.82617182725981, -4.165956759423368;"{""coordinates"": [-4.165956759423368, 47.82617182725981], ""type"": ""Point""}";arret_logique_reseau_breizhgo_car.D29502639;D29502639;Kergall;29135;Loctudy;-4.1660337;47.826168
48.38211226604874, -4.4864330079999775;"{""coordinates"": [-4.486433007999977, 48.38211226604874], ""type"": ""Point""}";arret_logique_reseau_breizhgo_car.D29500319;D29500319;Les Iles;29019;Brest;-4.486433;48.38211
47.666449497887164, -2.74194003259327;"{""coordinates"": [-2.74194003259327, 47.666449497887164], ""type"": ""Point""}";arret_logique_reseau_breizhgo_car.D562000539;D562000539;Troadec;56260;Vannes;-2.741252;47.666004
48.4063615230752, -1.3695997069591954;"{""coordinates"": [-1.369599706959195, 48.4063615230752], ""type"": ""Point""}";arret_logique_reseau_breizhgo_car.D357141;D357141;ST-BRICE-EN-COGLES Gare;35257;Maen-Roch;-1.369934;48.40583
47.898885725304034, -3.909865633988349;"{""coordinates"": [-3.909865633988349, 47.898885725304034], ""type"": ""Point""}";arret_logique_reseau_breizhgo_car.D29500894;D29500894;Le Poteau Vert;29039;Concarneau;-3.9096737;47.89862
47.91250337632916, -4.072462312571169;"{""coordinates"": [-4.072462312571169, 47.91250337632916], ""type"": ""Point""}";arret_logique_reseau_breizhgo_car.D29500773;D29500773;Route du Drennec;29032;Clohars-Fouesnant;-4.072385;47.912495
48.40787557396884, -4.485117479828218;"{""coordinates"": [-4.485117479828218, 48.40787557396884], ""type"": ""Point""}";arret_logique_reseau_breizhgo_car.D29500349;D29500349;Blum;29019;Brest;-4.485206;48.408123
48.448747548698314, -2.127161163785265;"{""coordinates"": [-2.127161163785265, 48.448747548698314], ""type"": ""Point""}";arret_logique_reseau_breizhgo_car.D221500008;D221500008;Hautes Freschais;22003;Aucaleuc;-2.1272204;48.448685
48.507074791708476, -2.7020617664636064;"{""coordinates"": [-2.702061766463606, 48.507074791708476], ""type"": ""Point""}";arret_logique_reseau_breizhgo_car.D221500374;D221500374;St-Ilan;22106;Langueux;-2.7021077;48.50706
48.51128398084957, -4.154848657800061;"{""coordinates"": [-4.154848657800061, 48.51128398084957], ""type"": ""Point""}";arret_logique_reseau_breizhgo_car.D29505774;D29505774;Mairie;29264;Saint-Servais;-4.1548486;48.511284
48.120312794280295, -1.7655103041998914;"{""coordinates"": [-1.765510304199891, 48.120312794280295], ""type"": ""Point""}";arret_logique_reseau_breizhgo_car.D35VEZVAL1;D35VEZVAL1;Vezin /Vallée;35353;Vezin-le-Coquet;-1.7655;48.1204
48.244155102970886, -1.4611474752640656;"{""coordinates"": [-1.461147475264066, 48.244155102970886], ""type"": ""Point""}";arret_logique_reseau_breizhgo_car.D356469;D356469;GOSNE Rue Nationale;35121;Gosné;-1.461027;48.244102
48.14169999904723, -1.770520000000011;"{""coordinates"": [-1.77052, 48.14169999904723], ""type"": ""Point""}";arret_logique_reseau_breizhgo_car.D35ARCOM@PACNOM;D35ARCOM@PACNOM;Pacé Nominoé;35210;Pacé;-1.77052;48.1417
47.90746367798106, -2.9814288850428277;"{""coordinates"": [-2.981428885042828, 47.90746367798106], ""type"": ""Point""}";arret_logique_reseau_breizhgo_car.D562000407;D562000407;Eglise;56074;Guénin;-2.9814057;47.90748
47.84803199904549, -1.6927476923077138;"{""coordinates"": [-1.692747692307714, 47.84803199904549], ""type"": ""Point""}";arret_logique_reseau_breizhgo_car.D3512928;D3512928;Bain-de-Bretagne/Lycée;35012;Bain-de-Bretagne;-1.6927477;47.848034
48.197220636553645, -4.092503736925971;"{""coordinates"": [-4.092503736925971, 48.197220636553645], ""type"": ""Point""}";arret_logique_reseau_breizhgo_car.D29500607;D29500607;Quai Cosmao;29026;Châteaulin;-4.0924115;48.197247
48.45637552571147, -2.054153744328827;"{""coordinates"": [-2.054153744328827, 48.45637552571147], ""type"": ""Point""}";arret_logique_reseau_breizhgo_car.D221500173;D221500173;Gare Routière;22050;Dinan;-2.0540411;48.45642
48.25082321045913, -1.8263806126763225;"{""coordinates"": [-1.826380612676322, 48.25082321045913], ""type"": ""Point""}";arret_logique_reseau_breizhgo_car.D35LGTCE1;D35LGTCE1;Langouët/ Centre;35146;Langouet;-1.8264;48.2508
47.92831078564419, -1.7432792821995453;"{""coordinates"": [-1.743279282199545, 47.92831078564419], ""type"": ""Point""}";arret_logique_reseau_breizhgo_car.D351221;D351221;Bourg-des-Comptes/La Pommeraie;35033;Bourg-des-Comptes;-1.743314;47.928383
48.56060198316092, -3.1468147625872547;"{""coordinates"": [-3.146814762587255, 48.56060198316092], ""type"": ""Point""}";arret_logique_reseau_breizhgo_car.D221500237;D221500237;Coll. Notre Dame;22070;Guingamp;-3.1468153;48.56057
48.296024100955265, -1.4330461653206235;"{""coordinates"": [-1.433046165320623, 48.296024100955265], ""type"": ""Point""}";arret_logique_reseau_breizhgo_car.D353061;D353061;MEZIERES-SUR-COUESNON Centre;35178;Mézières-sur-Couesnon;-1.433047;48.29603
48.45592251244483, -2.0282525227118553;"{""coordinates"": [-2.028252522711855, 48.45592251244483], ""type"": ""Point""}";arret_logique_reseau_breizhgo_car.D221500427;D221500427;La Poste;22118;Lanvallay;-2.028156;48.455982
48.50842460263527, -2.6320023467156886;"{""coordinates"": [-2.632002346715689, 48.50842460263527], ""type"": ""Point""}";arret_logique_reseau_breizhgo_car.D221500269;D221500269;Licantois;22081;Hillion;-2.6320026;48.50847
47.80517875800317, -4.1871422426539935;"{""coordinates"": [-4.187142242653993, 47.80517875800317], ""type"": ""Point""}";arret_logique_reseau_breizhgo_car.D29502643;D29502643;Kerizur;29135;Loctudy;-4.18724;47.8053
47.80099102970072, -2.1700510984108043;"{""coordinates"": [-2.170051098410804, 47.80099102970072], ""type"": ""Point""}";arret_logique_reseau_breizhgo_car.D562000014;D562000014;La Danais;56033;Carentoir;-2.1700683;47.801113
47.88957287746376, -4.012632104286091;"{""coordinates"": [-4.012632104286091, 47.88957287746376], ""type"": ""Point""}";arret_logique_reseau_breizhgo_car.D29501336;D29501336;Square de Bréhoulou;29058;Fouesnant;-4.012559;47.889687
48.65112659885045, -2.021086243600046;"{""coordinates"": [-2.021086243600046, 48.65112659885045], ""type"": ""Point""}";arret_logique_reseau_breizhgo_car.D221501157;D221501157;ST MALO Sillon casino;35288;Saint-Malo;-2.0210862;48.651127
48.54607045204981, -2.2138334015000587;"{""coordinates"": [-2.213833401500059, 48.54607045204981], ""type"": ""Point""}";arret_logique_reseau_breizhgo_car.D221500134;D221500134;Mairie;22049;Créhen;-2.2138333;48.54607
48.59377106584354, -2.2476855599969663;"{""coordinates"": [-2.247685559996966, 48.59377106584354], ""type"": ""Point""}";arret_logique_reseau_breizhgo_car.D221501080;D221501080;ST CAST Le Poteau;22282;Saint-Cast-le-Guildo;-2.2480106;48.59347
48.42104528214457, -2.658786554830369;"{""coordinates"": [-2.658786554830369, 48.42104528214457], ""type"": ""Point""}";arret_logique_reseau_breizhgo_car.D221500897;D221500897;Centre;22258;Quessoy;-2.6585271;48.421093
47.68800111094129, -2.616209667680585;"{""coordinates"": [-2.616209667680585, 47.68800111094129], ""type"": ""Point""}";arret_logique_reseau_breizhgo_car.D562000461;D562000461;Le Roscoët;56255;Treffléan;-2.6160927;47.688087
48.19802532345043, -2.0446560354279595;"{""coordinates"": [-2.044656035427959, 48.19802532345043], ""type"": ""Point""}";arret_logique_reseau_breizhgo_car.D221500501;D221500501;Rue de Rennes;35184;Montauban-de-Bretagne;-2.0449955;48.198067
48.395438194924374, -4.524161364237498;"{""coordinates"": [-4.524161364237498, 48.395438194924374], ""type"": ""Point""}";arret_logique_reseau_breizhgo_car.D29500311;D29500311;Amiral Ronarc'h;29019;Brest;-4.52446;48.39546
48.236896010147866, -3.443443229100044;"{""coordinates"": [-3.443443229100044, 48.236896010147866], ""type"": ""Point""}";arret_logique_reseau_breizhgo_car.D221500847;D221500847;Centre;22163;Paule;-3.4434433;48.236897
47.695440208730794, -2.9565362172190572;"{""coordinates"": [-2.956536217219057, 47.695440208730794], ""type"": ""Point""}";arret_logique_reseau_breizhgo_car.D562000083;D562000083;Ste-Anne-D'Auray/Kerdeliau;56263;Sainte-Anne-d'Auray;-2.9565232;47.69544
48.061877975925746, -2.9663372064562386;"{""coordinates"": [-2.966337206456239, 48.061877975925746], ""type"": ""Point""}";arret_logique_reseau_breizhgo_car.DREGLRRNS:PON9D2;DREGLRRNS:PON9D2;Gare SNCF;56178;Pontivy;-2.9661589;48.06194
48.02396988255406, -1.7617660247153037;"{""coordinates"": [-1.761766024715304, 48.02396988255406], ""type"": ""Point""}";arret_logique_reseau_breizhgo_car.D351319;D351319;Bruz/Rabine;35047;Bruz;-1.761905;48.023804
48.56590927421749, -3.174735296758489;"{""coordinates"": [-3.174735296758489, 48.56590927421749], ""type"": ""Point""}";arret_logique_reseau_breizhgo_car.D221500222;D221500222;St-Jean;22067;Grâces;-3.1746972;48.565796
48.6043322937502, -4.550220086499945;"{""coordinates"": [-4.550220086499945, 48.6043322937502], ""type"": ""Point""}";arret_logique_reseau_breizhgo_car.D29504206;D29504206;Port de Perros;29195;Plouguerneau;-4.55022;48.604332
48.3843906590488, -4.76212722769996;"{""coordinates"": [-4.76212722769996, 48.3843906590488], ""type"": ""Point""}";arret_logique_reseau_breizhgo_car.D29504420;D29504420;276 Illien;29201;Ploumoguer;-4.7621274;48.38439
48.04925649234972, -1.8664398679270082;"{""coordinates"": [-1.866439867927008, 48.04925649234972], ""type"": ""Point""}";arret_logique_reseau_breizhgo_car.D35B/MCULT1;D35B/MCULT1;Bréal/Centre Culturel;35037;Bréal-sous-Montfort;-1.86642;48.0493
48.24592949821827, -4.317062405401455;"{""coordinates"": [-4.317062405401455, 48.24592949821827], ""type"": ""Point""}";arret_logique_reseau_breizhgo_car.D29500000;D29500000;Bourg;29001;Argol;-4.3167605;48.246128
48.33827914579213, -3.6396218222495893;"{""coordinates"": [-3.639621822249589, 48.33827914579213], ""type"": ""Point""}";arret_logique_reseau_breizhgo_car.D29505051;D29505051;Bourg;29227;Poullaouen;-3.6397855;48.338463
48.48467026086388, -2.643475420699639;"{""coordinates"": [-2.643475420699639, 48.48467026086388], ""type"": ""Point""}";arret_logique_reseau_breizhgo_car.D221500261;D221500261;ST RENÉ Château Rouge;22081;Hillion;-2.6434505;48.484722
48.2076144563717, -1.5189083343772212;"{""coordinates"": [-1.518908334377221, 48.2076144563717], ""type"": ""Point""}";arret_logique_reseau_breizhgo_car.D352971;D352971;LIFFRE L'Ariançon;35152;Liffré;-1.518155;48.208122
48.6502999990505, -2.0212599999999687;"{""coordinates"": [-2.02126, 48.6502999990505], ""type"": ""Point""}";arret_logique_reseau_breizhgo_car.D35ARCOM@SMAINT;D35ARCOM@SMAINT;Saint-Malo Intra-Muros;35288;Saint-Malo;-2.02126;48.6503
47.978989235057334, -2.6735561353925292;"{""coordinates"": [-2.673556135392529, 47.978989235057334], ""type"": ""Point""}";arret_logique_reseau_breizhgo_car.DREGLRRON:ST:ARCOM@LOUFOUR;DREGLRRON:ST:ARCOM@LOUFOUR;Loudéac La Fourchette;56160;Pleugriffet;-2.6735039;47.97913
48.58925211215012, -2.5523487588999476;"{""coordinates"": [-2.552348758899948, 48.58925211215012], ""type"": ""Point""}";arret_logique_reseau_breizhgo_car.D221500865;D221500865;Parc Clémenceau n°115;22186;Pléneuf-Val-André;-2.5523489;48.589252
48.349429443771335, -1.860154740814329;"{""coordinates"": [-1.860154740814329, 48.349429443771335], ""type"": ""Point""}";arret_logique_reseau_breizhgo_car.D35SDOBOU2;D35SDOBOU2;Saint-Domineuc/ La Bouhourdais;35265;Saint-Domineuc;-1.86022;48.3494
48.10996310374304, -1.6852197725165128;"{""coordinates"": [-1.685219772516513, 48.10996310374304], ""type"": ""Point""}";arret_logique_reseau_breizhgo_car.D35ARCOM@RNPONT;D35ARCOM@RNPONT;Rennes Pont de Bretagne;35238;Rennes;-1.68519;48.11
47.86830464648721, -4.086642098670128;"{""coordinates"": [-4.086642098670128, 47.86830464648721], ""type"": ""Point""}";arret_logique_reseau_breizhgo_car.D29500083;D29500083;Le Letty UCPA;29006;Bénodet;-4.0867114;47.868256
48.15687788617891, -1.6873211793829561;"{""coordinates"": [-1.687321179382956, 48.15687788617891], ""type"": ""Point""}";arret_logique_reseau_breizhgo_car.D357887;D357887;ST-GREGOIRE Uttenreuth;35278;Saint-Grégoire;-1.687218;48.156956
47.59232661224399, -2.4019690841999894;"{""coordinates"": [-2.401969084199989, 47.59232661224399], ""type"": ""Point""}";arret_logique_reseau_breizhgo_car.D562000331;D562000331;Parc Animalier Branféré;56077;Le Guerno;-2.4019692;47.592327
48.57985299166176, -4.316153166427911;"{""coordinates"": [-4.316153166427911, 48.57985299166176], ""type"": ""Point""}";arret_logique_reseau_breizhgo_car.D29502501;D29502501;Languengar;29124;Lesneven;-4.316082;48.579865
48.66583611323203, -2.9016780550918586;"{""coordinates"": [-2.901678055091859, 48.66583611323203], ""type"": ""Point""}";arret_logique_reseau_breizhgo_car.D221500798;D221500798;Embt Keregal;22222;Plouha;-2.9016414;48.665787
48.64703484016402, -2.0041872395757268;"{""coordinates"": [-2.004187239575727, 48.64703484016402], ""type"": ""Point""}";arret_logique_reseau_breizhgo_car.D221501143;D221501143;ST MALO Gare Quai B;35288;Saint-Malo;-2.004171;48.647034
48.63591939029118, -2.1194482374481116;"{""coordinates"": [-2.119448237448112, 48.63591939029118], ""type"": ""Point""}";arret_logique_reseau_breizhgo_car.D35ARCOM@SLULON;D35ARCOM@SLULON;Saint-Lunaire Longchamp;35287;Saint-Lunaire;-2.119453;48.635925
47.682228668917276, -2.448985404615304;"{""coordinates"": [-2.448985404615304, 47.682228668917276], ""type"": ""Point""}";arret_logique_reseau_breizhgo_car.D562000604;D562000604;Bel Air (Questembert Communauté);56184;Questembert;-2.4488156;47.68218
48.03656950494665, -3.2712691373000626;"{""coordinates"": [-3.271269137300063, 48.03656950494665], ""type"": ""Point""}";arret_logique_reseau_breizhgo_car.D562000595;D562000595;Place Corentin Le floch;56110;Lignol;-3.271269;48.036568
48.519936400595476, -3.7342215954461047;"{""coordinates"": [-3.734221595446105, 48.519936400595476], ""type"": ""Point""}";arret_logique_reseau_breizhgo_car.D29504073;D29504073;Hôpital;29191;Plougonven;-3.73434;48.52009
48.860823333473576, -3.1016722118314832;"{""coordinates"": [-3.101672211831483, 48.860823333473576], ""type"": ""Point""}";arret_logique_reseau_breizhgo_car.D221500693;D221500693;L'Armor;22195;Pleubian;-3.1016693;48.86081
48.56053929726547, -2.0078063024143273;"{""coordinates"": [-2.007806302414327, 48.56053929726547], ""type"": ""Point""}";arret_logique_reseau_breizhgo_car.D221500366;D221500366;LANGROLAY La Benatais;22103;Langrolay-sur-Rance;-2.0077617;48.560543
47.636511186151886, -2.988693886347532;"{""coordinates"": [-2.988693886347532, 47.636511186151886], ""type"": ""Point""}";arret_logique_reseau_breizhgo_car.D562000241;D562000241;CRAC'H_Rosnarho;56046;Crach;-2.988628;47.636658
48.02581909045934, -1.9346023827182408;"{""coordinates"": [-1.934602382718241, 48.02581909045934], ""type"": ""Point""}";arret_logique_reseau_breizhgo_car.D35STUBIEU1;D35STUBIEU1;St-Thurial/ Bieurouze;35319;Saint-Thurial;-1.93456;48.0258
48.178641951850935, -2.761607586046133;"{""coordinates"": [-2.761607586046133, 48.178641951850935], ""type"": ""Point""}";arret_logique_reseau_breizhgo_car.D221500326;D221500326;Gare;22136;Loudéac;-2.761492;48.178593
48.45333729673892, -4.259402301260341;"{""coordinates"": [-4.259402301260341, 48.45333729673892], ""type"": ""Point""}";arret_logique_reseau_breizhgo_car.D29502171;D29502171;Gare Routière;29103;Landerneau;-4.259418;48.453365
48.031885791208126, -4.644345554143786;"{""coordinates"": [-4.644345554143786, 48.031885791208126], ""type"": ""Point""}";arret_logique_reseau_breizhgo_car.D29503306;D29503306;Croas Landrer;29168;Plogoff;-4.6442313;48.031902
48.21502957687377, -4.07349817131453;"{""coordinates"": [-4.07349817131453, 48.21502957687377], ""type"": ""Point""}";arret_logique_reseau_breizhgo_car.D29504940;D29504940;Centre;29222;Port-Launay;-4.0735326;48.21504
47.64595291994433, -2.7218986435000496;"{""coordinates"": [-2.72189864350005, 47.64595291994433], ""type"": ""Point""}";arret_logique_reseau_breizhgo_car.D562000537;D562000537;Vannes/Collège Cousteau;56243;Séné;-2.7218986;47.645954
47.65803061674439, -2.971842588299978;"{""coordinates"": [-2.971842588299978, 47.65803061674439], ""type"": ""Point""}";arret_logique_reseau_breizhgo_car.D562000132;D562000132;Pluneret/Kerplouz;56007;Auray;-2.9718425;47.65803
48.078193264370555, -4.191638969995847;"{""coordinates"": [-4.191638969995847, 48.078193264370555], ""type"": ""Point""}";arret_logique_reseau_breizhgo_car.D29503321;D29503321;Bourg;29169;Plogonnec;-4.1914663;48.07834
48.65827962207973, -2.850790406201853;"{""coordinates"": [-2.850790406201853, 48.65827962207973], ""type"": ""Point""}";arret_logique_reseau_breizhgo_car.D221501187;D221501187;ST QUAY PX Kertugal;22325;Saint-Quay-Portrieux;-2.8509872;48.658154
47.99004812493213, -4.131717566358503;"{""coordinates"": [-4.131717566358503, 47.99004812493213], ""type"": ""Point""}";arret_logique_reseau_breizhgo_car.D29505162;D29505162;Avenue des Oiseaux;29232;Quimper;-4.131802;47.990158
47.958127492446124, -2.5465609261999496;"{""coordinates"": [-2.54656092619995, 47.958127492446124], ""type"": ""Point""}";arret_logique_reseau_breizhgo_car.DREGLRRON:ST:ARCOM@JOSPL;DREGLRRON:ST:ARCOM@JOSPL;Josselin Place du 18 Juin 1940;56091;Josselin;-2.546561;47.958126
48.63595869662164, -2.119349206775881;"{""coordinates"": [-2.119349206775881, 48.63595869662164], ""type"": ""Point""}";arret_logique_reseau_breizhgo_car.D35SLULON2;D35SLULON2;Saint-Lunaire/ Longchamp;35287;Saint-Lunaire;-2.119323;48.63593
48.452881176073205, -4.06547915970782;"{""coordinates"": [-4.06547915970782, 48.452881176073205], ""type"": ""Point""}";arret_logique_reseau_breizhgo_car.D29502582;D29502582;Bourg;29131;Locmélar;-4.0652223;48.452965
48.10371507374831, -3.9777809942447093;"{""coordinates"": [-3.977780994244709, 48.10371507374831], ""type"": ""Point""}";arret_logique_reseau_breizhgo_car.D29501130;D29501130;Bourg;29048;Edern;-3.9777858;48.103775
48.62739594344963, -2.0558421966968132;"{""coordinates"": [-2.055842196696813, 48.62739594344963], ""type"": ""Point""}";arret_logique_reseau_breizhgo_car.D35ARCOM@DNDEGL;D35ARCOM@DNDEGL;Dinard Eglise Notre-Dame;35093;Dinard;-2.05596;48.6274
48.09181428862554, -4.336328006185402;"{""coordinates"": [-4.336328006185402, 48.09181428862554], ""type"": ""Point""}";arret_logique_reseau_breizhgo_car.D29501090;D29501090;Ancienne Gare;29046;Douarnenez;-4.3365498;48.09212
48.477478682949005, -2.7239492331906696;"{""coordinates"": [-2.72394923319067, 48.477478682949005], ""type"": ""Point""}";arret_logique_reseau_breizhgo_car.D221501297;D221501297;Croix Gibat;22360;Trégueux;-2.7230372;48.47693
48.055865632328604, -1.507867933023636;"{""coordinates"": [-1.507867933023636, 48.055865632328604], ""type"": ""Point""}";arret_logique_reseau_breizhgo_car.D351511;D351511;Châteaugiron/Beaujardin;35069;Châteaugiron;-1.507859;48.05572
48.13179094358662, -2.223055782755627;"{""coordinates"": [-2.223055782755627, 48.13179094358662], ""type"": ""Point""}";arret_logique_reseau_breizhgo_car.D35GAEEGL1;D35GAEEGL1;Gaël /Église;35117;Gaël;-2.22305;48.1318
48.11164422175187, -1.5327263020762918;"{""coordinates"": [-1.532726302076292, 48.11164422175187], ""type"": ""Point""}";arret_logique_reseau_breizhgo_car.D35707;D35707;Noyal-sur-Vilaine/Mabilais;35207;Noyal-sur-Vilaine;-1.532525;48.11205
48.472171134949306, -4.37467999670003;"{""coordinates"": [-4.37467999670003, 48.472171134949306], ""type"": ""Point""}";arret_logique_reseau_breizhgo_car.D29501986;D29501986;Bourg;29095;Kersaint-Plabennec;-4.37468;48.47217
48.379110406006426, -4.322690806470092;"{""coordinates"": [-4.322690806470092, 48.379110406006426], ""type"": ""Point""}";arret_logique_reseau_breizhgo_car.D29502741;D29502741;Saint-Jacob;29140;Loperhet;-4.3226414;48.379047
48.58335688115533, -4.555047542152066;"{""coordinates"": [-4.555047542152066, 48.58335688115533], ""type"": ""Point""}";arret_logique_reseau_breizhgo_car.D29502115;D29502115;Bel Air;29101;Landéda;-4.554821;48.58306
47.76160651429525, -3.351960392212268;"{""coordinates"": [-3.351960392212268, 47.76160651429525], ""type"": ""Point""}";arret_logique_reseau_breizhgo_car.D562000544;D562000544;Général Leclerc;56098;Lanester;-3.3520288;47.761593
48.31490578207251, -1.7184518133383309;"{""coordinates"": [-1.718451813338331, 48.31490578207251], ""type"": ""Point""}";arret_logique_reseau_breizhgo_car.D352895;D352895;GUIPEL La Plousière;35128;Guipel;-1.7183126;48.314995
48.66498093526758, -4.304731215143515;"{""coordinates"": [-4.304731215143515, 48.66498093526758], ""type"": ""Point""}";arret_logique_reseau_breizhgo_car.D29500513;D29500513;Kervillo;29021;Plounéour-Brignogan-Plages;-4.304681;48.66517
47.8754007451528, -1.6785109043748796;"{""coordinates"": [-1.67851090437488, 47.8754007451528], ""type"": ""Point""}";arret_logique_reseau_breizhgo_car.D35866;D35866;Pléchâtel/Le Chatelier;35221;Pléchâtel;-1.678568;47.875362
48.28377433035619, -4.462071649947246;"{""coordinates"": [-4.462071649947246, 48.28377433035619], ""type"": ""Point""}";arret_logique_reseau_breizhgo_car.D29502434;D29502434;Rue de l'Aviation;29120;Lanvéoc;-4.4618826;48.283855
47.85494043465756, -3.8458514124123524;"{""coordinates"": [-3.845851412412352, 47.85494043465756], ""type"": ""Point""}";arret_logique_reseau_breizhgo_car.D29506371;D29506371;Cimetière;29293;Trégunc;-3.8459017;47.854874
48.2198419715576, -3.9784922868050057;"{""coordinates"": [-3.978492286805006, 48.2198419715576], ""type"": ""Point""}";arret_logique_reseau_breizhgo_car.D29503161;D29503161;Maison Familiale;29162;Pleyben;-3.9784968;48.219852
47.717415399731706, -3.010025177167172;"{""coordinates"": [-3.010025177167172, 47.717415399731706], ""type"": ""Point""}";arret_logique_reseau_breizhgo_car.D562000130;D562000130;Brec'h/Corn er Hoët;56023;Brech;-3.0101733;47.717793
48.017870889266014, -4.211782395217922;"{""coordinates"": [-4.211782395217922, 48.017870889266014], ""type"": ""Point""}";arret_logique_reseau_breizhgo_car.D29503481;D29503481;Centre;29173;Plonéis;-4.2137494;48.018715
48.633589480105094, -2.107611890500704;"{""coordinates"": [-2.107611890500704, 48.633589480105094], ""type"": ""Point""}";arret_logique_reseau_breizhgo_car.D35ARCOM@SLUPONT;D35ARCOM@SLUPONT;Saint-Lunaire Le Pontual;35287;Saint-Lunaire;-2.10761;48.6336
48.01018827148524, -1.4298020240587708;"{""coordinates"": [-1.429802024058771, 48.01018827148524], ""type"": ""Point""}";arret_logique_reseau_breizhgo_car.D3514178;D3514178;Piré-sur-Seiche/Centre;35220;Piré-Chancé;-1.429761;48.010254
48.66824523847254, -2.916129025821511;"{""coordinates"": [-2.916129025821511, 48.66824523847254], ""type"": ""Point""}";arret_logique_reseau_breizhgo_car.D221500796;D221500796;St-Yves;22222;Plouha;-2.9162934;48.668102
48.78203258364546, -3.1473544350392384;"{""coordinates"": [-3.147354435039238, 48.78203258364546], ""type"": ""Point""}";arret_logique_reseau_breizhgo_car.D221500717;D221500717;Kerantour;22196;Pleudaniel;-3.1469543;48.78234
48.37657138752787, -2.0926491266443508;"{""coordinates"": [-2.092649126644351, 48.37657138752787], ""type"": ""Point""}";arret_logique_reseau_breizhgo_car.D221500064;D221500064;BRUSVILY Le Creux;22380;Trévron;-2.0922625;48.37668
48.49121488929675, -2.185239599188481;"{""coordinates"": [-2.185239599188481, 48.49121488929675], ""type"": ""Point""}";arret_logique_reseau_breizhgo_car.D221500144;D221500144;Poissonnais;22048;Corseul;-2.184934;48.491055
47.79769782292058, -4.285259110860742;"{""coordinates"": [-4.285259110860742, 47.79769782292058], ""type"": ""Point""}";arret_logique_reseau_breizhgo_car.D29501620;D29501620;Rue de la Palue;29072;Le Guilvinec;-4.285367;47.79779
47.98678555407668, -1.8746527362125704;"{""coordinates"": [-1.87465273621257, 47.98678555407668], ""type"": ""Point""}";arret_logique_reseau_breizhgo_car.D3512960;D3512960;Goven/La Hillandais;35123;Goven;-1.87448;47.9868
48.61564964939123, -2.11910361284354;"{""coordinates"": [-2.11910361284354, 48.61564964939123], ""type"": ""Point""}";arret_logique_reseau_breizhgo_car.D35SBMBRUN1;D35SBMBRUN1;Saint-Briac/ Ville Brunet;35256;Saint-Briac-sur-Mer;-2.11912;48.6156
48.342528480448465, -4.75546217440001;"{""coordinates"": [-4.75546217440001, 48.342528480448465], ""type"": ""Point""}";arret_logique_reseau_breizhgo_car.D29500929;D29500929;Kérinou;29040;Le Conquet;-4.755462;48.34253
48.16165141280462, -2.7544896036799456;"{""coordinates"": [-2.754489603679946, 48.16165141280462], ""type"": ""Point""}";arret_logique_reseau_breizhgo_car.DREGLRRNS:ST:LDA1G1;DREGLRRNS:ST:LDA1G1;Loudéac ZI Sud;22136;Loudéac;-2.7544525;48.16162
48.21609928440093, -3.035784918527705;"{""coordinates"": [-3.035784918527705, 48.21609928440093], ""type"": ""Point""}";arret_logique_reseau_breizhgo_car.D221500066;D221500066;église;22033;Caurel;-3.0358098;48.216293
47.63605362871974, -2.159764940960312;"{""coordinates"": [-2.159764940960312, 47.63605362871974], ""type"": ""Point""}";arret_logique_reseau_breizhgo_car.D562000138;D562000138;Rue de Redon;56001;Allaire;-2.1594465;47.63589
48.17989006744747, -2.7352289810999526;"{""coordinates"": [-2.735228981099953, 48.17989006744747], ""type"": ""Point""}";arret_logique_reseau_breizhgo_car.DREGLRRON:ST:ARCOM@LOUTRI;DREGLRRON:ST:ARCOM@LOUTRI;Loudéac Triskell;22136;Loudéac;-2.735229;48.17989
47.889245036215094, -3.9176445859532754;"{""coordinates"": [-3.917644585953275, 47.889245036215094], ""type"": ""Point""}";arret_logique_reseau_breizhgo_car.D29500896;D29500896;Maison Blanche;29039;Concarneau;-3.9177508;47.889305
47.85544488255215, -3.983337139914208;"{""coordinates"": [-3.983337139914208, 47.85544488255215], ""type"": ""Point""}";arret_logique_reseau_breizhgo_car.D29501325;D29501325;Beg-Meil Plage;29058;Fouesnant;-3.9833348;47.855267
48.51742036780838, -2.7788653116248945;"{""coordinates"": [-2.778865311624894, 48.51742036780838], ""type"": ""Point""}";arret_logique_reseau_breizhgo_car.D221501004;D221501004;ST BRIEUC St Jouan;22278;Saint-Brieuc;-2.7788022;48.51751
48.479040593298784, -4.4377529388722055;"{""coordinates"": [-4.437752938872205, 48.479040593298784], ""type"": ""Point""}";arret_logique_reseau_breizhgo_car.D29503105;D29503105;Kerlin;29160;Plabennec;-4.4373198;48.47954
48.13473429504621, -2.083310664332814;"{""coordinates"": [-2.083310664332814, 48.13473429504621], ""type"": ""Point""}";arret_logique_reseau_breizhgo_car.D35ARCOM@GANCE;D35ARCOM@GANCE;St Maugan Centre;35295;Saint-Maugan;-2.08328;48.1348
47.87343878464569, -3.0142297483999885;"{""coordinates"": [-3.014229748399988, 47.87343878464569], ""type"": ""Point""}";arret_logique_reseau_breizhgo_car.D562000532;D562000532;Collège Mathurin Martin;56010;Baud;-3.0142298;47.87344
48.35892187842141, -1.1928659042895307;"{""coordinates"": [-1.192865904289531, 48.35892187842141], ""type"": ""Point""}";arret_logique_reseau_breizhgo_car.D352837;D352837;FOUGERES Hôpital;35115;Fougères;-1.19275;48.358974
48.48909941654897, -3.6722403041166514;"{""coordinates"": [-3.672240304116651, 48.48909941654897], ""type"": ""Point""}";arret_logique_reseau_breizhgo_car.D29502359;D29502359;Bourg;29114;Lannéanou;-3.6719675;48.48908
48.57342667477115, -4.533019693549918;"{""coordinates"": [-4.533019693549918, 48.57342667477115], ""type"": ""Point""}";arret_logique_reseau_breizhgo_car.D29502400;D29502400;Flescou;29117;Lannilis;-4.53277;48.57358
48.60580154823061, -4.113565725177696;"{""coordinates"": [-4.113565725177696, 48.60580154823061], ""type"": ""Point""}";arret_logique_reseau_breizhgo_car.D29504699;D29504699;Berven Chapelle;29213;Plouzévédé;-4.1135044;48.605774
48.59919999905016, -1.9724100000000202;"{""coordinates"": [-1.97241, 48.59919999905016], ""type"": ""Point""}";arret_logique_reseau_breizhgo_car.D35SJOCE1;D35SJOCE1;Saint-Jouan /Centre;35284;Saint-Jouan-des-Guérets;-1.97241;48.5992
48.65370971937351, -4.407716827008433;"{""coordinates"": [-4.407716827008433, 48.65370971937351], ""type"": ""Point""}";arret_logique_reseau_breizhgo_car.D29501944;D29501944;Boutrouille;29091;Kerlouan;-4.406656;48.6537
48.13179094358662, -2.223055782755627;"{""coordinates"": [-2.223055782755627, 48.13179094358662], ""type"": ""Point""}";arret_logique_reseau_breizhgo_car.D35ARCOM@GAEEGL;D35ARCOM@GAEEGL;Gaël Église;35117;Gaël;-2.22305;48.1318
48.58789163338892, -4.574914972509925;"{""coordinates"": [-4.574914972509925, 48.58789163338892], ""type"": ""Point""}";arret_logique_reseau_breizhgo_car.D29502134;D29502134;Bourg;29101;Landéda;-4.57501;48.58794
48.585307950750064, -2.517663699099944;"{""coordinates"": [-2.517663699099944, 48.585307950750064], ""type"": ""Point""}";arret_logique_reseau_breizhgo_car.D221500855;D221500855;croix verte-les rues;22186;Pléneuf-Val-André;-2.5176637;48.585308
47.866794149978, -2.4222378177673267;"{""coordinates"": [-2.422237817767327, 47.866794149978], ""type"": ""Point""}";arret_logique_reseau_breizhgo_car.D562000476;D562000476;LA CHAPELLE CARO_Mairie;56197;Val d'Oust;-2.4223378;47.86684
48.72998728287347, -3.4451248798765257;"{""coordinates"": [-3.445124879876526, 48.72998728287347], ""type"": ""Point""}";arret_logique_reseau_breizhgo_car.D221500393;D221500393;Park Nevez;22113;Lannion;-3.4452953;48.72995
48.74669437112733, -3.2632639059261948;"{""coordinates"": [-3.263263905926195, 48.74669437112733], ""type"": ""Point""}";arret_logique_reseau_breizhgo_car.D221500447;D221500447;Mairie;22264;La Roche-Jaudy;-3.262897;48.74684
48.06069747974676, -3.83225310099995;"{""coordinates"": [-3.83225310099995, 48.06069747974676], ""type"": ""Point""}";arret_logique_reseau_breizhgo_car.D29500946;D29500946;Centre;29041;Coray;-3.8322532;48.060696
47.97175228459637, -1.795941963225385;"{""coordinates"": [-1.795941963225385, 47.97175228459637], ""type"": ""Point""}";arret_logique_reseau_breizhgo_car.D351327;D351327;Guichen/Prairie;35126;Guichen;-1.7961226;47.971573
48.36221126061084, -4.701248408556296;"{""coordinates"": [-4.701248408556296, 48.36221126061084], ""type"": ""Point""}";arret_logique_reseau_breizhgo_car.D29504049;D29504049;La Grange;29190;Plougonvelin;-4.701757;48.361843
48.62570145107095, -2.136659135255651;"{""coordinates"": [-2.136659135255651, 48.62570145107095], ""type"": ""Point""}";arret_logique_reseau_breizhgo_car.D35SBMHOU1;D35SBMHOU1;Saint-Briac/ La Houle;35256;Saint-Briac-sur-Mer;-2.13669;48.6257
48.33067919347645, -4.292548678401506;"{""coordinates"": [-4.292548678401506, 48.33067919347645], ""type"": ""Point""}";arret_logique_reseau_breizhgo_car.D29502659;D29502659;Prat Pan;29137;Logonna-Daoulas;-4.292513;48.33073
48.012116058376854, -4.095249318339767;"{""coordinates"": [-4.095249318339767, 48.012116058376854], ""type"": ""Point""}";arret_logique_reseau_breizhgo_car.D29505184;D29505184;Cité administrative;29232;Quimper;-4.095349;48.01213
47.93070179064595, -2.1279468268;"{""coordinates"": [-2.1279468268, 47.93070179064595], ""type"": ""Point""}";arret_logique_reseau_breizhgo_car.DREGLRRON:GUCOE1;DREGLRRON:GUCOE1;Coetiquidan;56075;Guer;-2.1279469;47.930702
48.474849342749295, -2.01796559970001;"{""coordinates"": [-2.01796559970001, 48.474849342749295], ""type"": ""Point""}";arret_logique_reseau_breizhgo_car.D221501230;D221501230;Mairie;22339;Taden;-2.0179656;48.47485
47.920971349890586, -2.8374242774636054;"{""coordinates"": [-2.837424277463605, 47.920971349890586], ""type"": ""Point""}";arret_logique_reseau_breizhgo_car.D562000341;D562000341;Porh Legal;56140;Moréac;-2.8376489;47.92105
47.68574064744451, -2.2139860699000526;"{""coordinates"": [-2.213986069900053, 47.68574064744451], ""type"": ""Point""}";arret_logique_reseau_breizhgo_car.D562000011;D562000011;Lycée;56221;Saint-Jacut-les-Pins;-2.2139862;47.68574
47.68928499964716, -2.5421470123614816;"{""coordinates"": [-2.542147012361482, 47.68928499964716], ""type"": ""Point""}";arret_logique_reseau_breizhgo_car.D562000581;D562000581;Place de l'église;56261;La Vraie-Croix;-2.5421708;47.68926
48.11492739477137, -1.5906801788678813;"{""coordinates"": [-1.590680178867881, 48.11492739477137], ""type"": ""Point""}";arret_logique_reseau_breizhgo_car.D35722;D35722;Cesson-Sévigné/Haut Grippé;35051;Cesson-Sévigné;-1.5907;48.114975
48.36014532553841, -2.6358267897800856;"{""coordinates"": [-2.635826789780086, 48.36014532553841], ""type"": ""Point""}";arret_logique_reseau_breizhgo_car.D221500487;D221500487;Centre;22153;Moncontour;-2.635868;48.36021
48.55165644054983, -4.538113875599949;"{""coordinates"": [-4.538113875599949, 48.55165644054983], ""type"": ""Point""}";arret_logique_reseau_breizhgo_car.D29506289;D29506289;Eglise;29290;Tréglonou;-4.538114;48.551655
48.40356169984882, -4.722397862400008;"{""coordinates"": [-4.722397862400008, 48.40356169984882], ""type"": ""Point""}";arret_logique_reseau_breizhgo_car.D29504373;D29504373;Mairie;29201;Ploumoguer;-4.722398;48.40356
48.5844579792514, -2.5352301071518872;"{""coordinates"": [-2.535230107151887, 48.5844579792514], ""type"": ""Point""}";arret_logique_reseau_breizhgo_car.D221500850;D221500850;Lourmel;22186;Pléneuf-Val-André;-2.5350924;48.584496
48.559877755464, -4.338779083234301;"{""coordinates"": [-4.338779083234301, 48.559877755464], ""type"": ""Point""}";arret_logique_reseau_breizhgo_car.D29501263;D29501263;Bourg;29055;Le Folgoët;-4.3389397;48.559902
48.51813651360323, -2.224220851998754;"{""coordinates"": [-2.224220851998754, 48.51813651360323], ""type"": ""Point""}";arret_logique_reseau_breizhgo_car.D221500709;D221500709;Nazareth;22172;Plancoët;-2.224531;48.51807
48.06019964369622, -1.5490850818952033;"{""coordinates"": [-1.549085081895203, 48.06019964369622], ""type"": ""Point""}";arret_logique_reseau_breizhgo_car.D3512868;D3512868;Domloup/Le Bois Hamon;35099;Domloup;-1.550291;48.060333
48.19144905132165, -2.7622451504321703;"{""coordinates"": [-2.76224515043217, 48.19144905132165], ""type"": ""Point""}";arret_logique_reseau_breizhgo_car.D221500330;D221500330;Ker Hervé;22136;Loudéac;-2.7621698;48.191437
47.538066752743745, -2.3975235207999854;"{""coordinates"": [-2.397523520799985, 47.538066752743745], ""type"": ""Point""}";arret_logique_reseau_breizhgo_car.D562000073;D562000073;Corne Du Cerf;56004;Arzal;-2.3975234;47.538067
48.2197268521141, -1.4958628367444196;"{""coordinates"": [-1.49586283674442, 48.2197268521141], ""type"": ""Point""}";arret_logique_reseau_breizhgo_car.D356465;D356465;LIFFRE Sévailles;35152;Liffré;-1.496705;48.21954
48.11330039843357, -1.6752065335478088;"{""coordinates"": [-1.675206533547809, 48.11330039843357], ""type"": ""Point""}";arret_logique_reseau_breizhgo_car.D356475;D356475;RENNES Fossés;35238;Rennes;-1.675244;48.113304
48.01446751181645, -4.486839808965522;"{""coordinates"": [-4.486839808965522, 48.01446751181645], ""type"": ""Point""}";arret_logique_reseau_breizhgo_car.D29504296;D29504296;Bourg;29197;Plouhinec;-4.48669;48.014328
48.02133801017001, -4.266876008301972;"{""coordinates"": [-4.266876008301972, 48.02133801017001], ""type"": ""Point""}";arret_logique_reseau_breizhgo_car.D29501503;D29501503;Bourg;29065;Gourlizon;-4.266809;48.02122
48.675541173110446, -2.9314166864742988;"{""coordinates"": [-2.931416686474299, 48.675541173110446], ""type"": ""Point""}";arret_logique_reseau_breizhgo_car.D221500804;D221500804;La Poste;22222;Plouha;-2.9314642;48.675568
48.51472591848813, -1.946737134606043;"{""coordinates"": [-1.946737134606043, 48.51472591848813], ""type"": ""Point""}";arret_logique_reseau_breizhgo_car.D221500607;D221500607;PLEUDIHEN La Motte;22197;Pleudihen-sur-Rance;-1.9468976;48.51475
47.66443253092653, -2.9827470005112713;"{""coordinates"": [-2.982747000511271, 47.66443253092653], ""type"": ""Point""}";arret_logique_reseau_breizhgo_car.D562000255;D562000255;Place du Loch;56007;Auray;-2.983115;47.66454
48.54615063708437, -2.2137776788014474;"{""coordinates"": [-2.213777678801447, 48.54615063708437], ""type"": ""Point""}";arret_logique_reseau_breizhgo_car.D221500135;D221500135;Coll. Immaculée-Conception;22049;Créhen;-2.2138011;48.546143
47.9688057874384, -1.7989233011908887;"{""coordinates"": [-1.798923301190889, 47.9688057874384], ""type"": ""Point""}";arret_logique_reseau_breizhgo_car.D351328;D351328;Guichen/Presbytère;35126;Guichen;-1.798933;47.968864
48.278704914948065, -3.5495964198999803;"{""coordinates"": [-3.54959641989998, 48.278704914948065], ""type"": ""Point""}";arret_logique_reseau_breizhgo_car.D29500559;D29500559;Lycée Paul Sérusier;29024;Carhaix-Plouguer;-3.5495963;48.278706
48.19582849165266, -4.3021448171279015;"{""coordinates"": [-4.302144817127902, 48.19582849165266], ""type"": ""Point""}";arret_logique_reseau_breizhgo_car.D29505666;D29505666;Pentrez;29256;Saint-Nic;-4.302773;48.19605
48.62679763035632, -2.0024040733731905;"{""coordinates"": [-2.00240407337319, 48.62679763035632], ""type"": ""Point""}";arret_logique_reseau_breizhgo_car.D35SMABALU1;D35SMABALU1;Saint-Malo /Lycée Jacques Cartier;35288;Saint-Malo;-2.0024;48.6268
48.46769055256421, -4.640301814205262;"{""coordinates"": [-4.640301814205262, 48.46769055256421], ""type"": ""Point""}";arret_logique_reseau_breizhgo_car.D29502422;D29502422;Lanvénec;29119;Lanrivoaré;-4.6404552;48.467735
48.19037464628809, -4.059679039918709;"{""coordinates"": [-4.059679039918709, 48.19037464628809], ""type"": ""Point""}";arret_logique_reseau_breizhgo_car.D29505482;D29505482;Mairie;29243;Saint-Coulitz;-4.059711;48.190464
48.40922385135589, -2.3230628276332035;"{""coordinates"": [-2.323062827633203, 48.40922385135589], ""type"": ""Point""}";arret_logique_reseau_breizhgo_car.D221501357;D221501357;JUGON LES LACS Poste;22084;Jugon-les-lacs - Commune nouvelle;-2.3230228;48.409203
48.50819276655668, -2.7664705160378316;"{""coordinates"": [-2.766470516037832, 48.50819276655668], ""type"": ""Point""}";arret_logique_reseau_breizhgo_car.DREGLRRNS:SBC1A3;DREGLRRNS:SBC1A3;Gare SNCF;22278;Saint-Brieuc;-2.766493;48.508095
48.10984320747523, -1.6735189680046394;"{""coordinates"": [-1.673518968004639, 48.10984320747523], ""type"": ""Point""}";arret_logique_reseau_breizhgo_car.D353261;D353261;RENNES Pasteur Richemont;35238;Rennes;-1.673519;48.109844
48.01565985370778, -4.082333102200473;"{""coordinates"": [-4.082333102200473, 48.01565985370778], ""type"": ""Point""}";arret_logique_reseau_breizhgo_car.D29505132;D29505132;Gourvily;29232;Quimper;-4.0821314;48.015697
48.3194507557992, -3.858726182794292;"{""coordinates"": [-3.858726182794292, 48.3194507557992], ""type"": ""Point""}";arret_logique_reseau_breizhgo_car.D29502747;D29502747;Bourg;29141;Loqueffret;-3.8587136;48.319427
48.43360892163419, -4.7210686003113675;"{""coordinates"": [-4.721068600311368, 48.43360892163419], ""type"": ""Point""}";arret_logique_reseau_breizhgo_car.D29503651;D29503651;Beg Avel;29177;Plouarzel;-4.721135;48.433655
48.675244354109346, -2.932013832700519;"{""coordinates"": [-2.932013832700519, 48.675244354109346], ""type"": ""Point""}";arret_logique_reseau_breizhgo_car.D221500788;D221500788;Coll. Public;22222;Plouha;-2.9336998;48.674576
47.9133142751405, -1.3892148981288361;"{""coordinates"": [-1.389214898128836, 47.9133142751405], ""type"": ""Point""}";arret_logique_reseau_breizhgo_car.D351235;D351235;Retiers/Gare;35239;Retiers;-1.38928;47.91337
48.6014970773699, -2.9422477463077623;"{""coordinates"": [-2.942247746307762, 48.6014970773699], ""type"": ""Point""}";arret_logique_reseau_breizhgo_car.D221501252;D221501252;Centre;22361;Tréguidel;-2.9423115;48.601463
48.55311515234135, -2.946608554225354;"{""coordinates"": [-2.946608554225354, 48.55311515234135], ""type"": ""Point""}";arret_logique_reseau_breizhgo_car.D221500742;D221500742;Gare Routière;22182;Plélo;-2.9468;48.55313
47.91454005353247, -4.060414117358655;"{""coordinates"": [-4.060414117358655, 47.91454005353247], ""type"": ""Point""}";arret_logique_reseau_breizhgo_car.D29503132;D29503132;Les Primevères;29161;Pleuven;-4.060389;47.914757
48.622296466027755, -2.9982708936434315;"{""coordinates"": [-2.998270893643431, 48.622296466027755], ""type"": ""Point""}";arret_logique_reseau_breizhgo_car.D221500453;D221500453;Moulin de Blanchardeau;22121;Lanvollon;-2.99837;48.62234
48.2782425194481, -3.562144956100043;"{""coordinates"": [-3.562144956100043, 48.2782425194481], ""type"": ""Point""}";arret_logique_reseau_breizhgo_car.D29500552;D29500552;Gare SNCF;29024;Carhaix-Plouguer;-3.562145;48.278244
48.10971957317369, -1.6983548011892888;"{""coordinates"": [-1.698354801189289, 48.10971957317369], ""type"": ""Point""}";arret_logique_reseau_breizhgo_car.D35RNGUIL2;D35RNGUIL2;Rennes/ Guilloux;35238;Rennes;-1.69838;48.1097
48.28454461380463, -2.1546151709696586;"{""coordinates"": [-2.154615170969659, 48.28454461380463], ""type"": ""Point""}";arret_logique_reseau_breizhgo_car.D221500092;D221500092;Gare SNCF;22032;Caulnes;-2.1546454;48.284542
48.13305127990411, -1.8556492203241262;"{""coordinates"": [-1.855649220324126, 48.13305127990411], ""type"": ""Point""}";arret_logique_reseau_breizhgo_car.D35CHTCHER1;D35CHTCHER1;La Chapelle-Thouarault /Chertrie;35065;La Chapelle-Thouarault;-1.85575;48.1331
48.4852727743266, -2.665467035805833;"{""coordinates"": [-2.665467035805833, 48.4852727743266], ""type"": ""Point""}";arret_logique_reseau_breizhgo_car.D221500256;D221500256;Quimbrin;22081;Hillion;-2.6654654;48.485363
48.109888864658856, -1.698644654973838;"{""coordinates"": [-1.698644654973838, 48.109888864658856], ""type"": ""Point""}";arret_logique_reseau_breizhgo_car.D35RNGUIL1;D35RNGUIL1;Rennes /Guilloux;35238;Rennes;-1.69863;48.1099
48.50095540464946, -2.7635595925000427;"{""coordinates"": [-2.763559592500043, 48.50095540464946], ""type"": ""Point""}";arret_logique_reseau_breizhgo_car.DREGLRRNS:ST:SBC5A3;DREGLRRNS:ST:SBC5A3;SAINT-BRIEUC_Aquabaie;22215;Ploufragan;-2.7635596;48.500954
48.05373780765714, -1.8695153589436613;"{""coordinates"": [-1.869515358943661, 48.05373780765714], ""type"": ""Point""}";arret_logique_reseau_breizhgo_car.D35B/MCHAT1;D35B/MCHAT1;Bréal/Le Châtelet;35037;Bréal-sous-Montfort;-1.8695;48.0537
48.19935974357427, -1.7339639114481804;"{""coordinates"": [-1.73396391144818, 48.19935974357427], ""type"": ""Point""}";arret_logique_reseau_breizhgo_car.D35MEZMONT1;D35MEZMONT1;La Mézière/ Montgerval;35177;La Mézière;-1.73383;48.1994
48.35350528092105, -1.1985103389312308;"{""coordinates"": [-1.198510338931231, 48.35350528092105], ""type"": ""Point""}";arret_logique_reseau_breizhgo_car.D352840;D352840;FOUGERES Place Carnot;35115;Fougères;-1.1985894;48.35369
48.290672532232215, -3.231229891728518;"{""coordinates"": [-3.231229891728518, 48.290672532232215], ""type"": ""Point""}";arret_logique_reseau_breizhgo_car.D221500746;D221500746;Mairie;22229;Plounévez-Quintin;-3.2310805;48.29054
47.96360987876939, -4.059082970826175;"{""coordinates"": [-4.059082970826175, 47.96360987876939], ""type"": ""Point""}";arret_logique_reseau_breizhgo_car.D29505142;D29505142;Kervao;29232;Quimper;-4.059328;47.96372
48.53738784495161, -3.038150607660809;"{""coordinates"": [-3.038150607660809, 48.53738784495161], ""type"": ""Point""}";arret_logique_reseau_breizhgo_car.D221501118;D221501118;ST JEAN KERDANIEL Embt;22304;Saint-Jean-Kerdaniel;-3.0381694;48.537357
48.63360640158856, -2.0667488408205155;"{""coordinates"": [-2.066748840820515, 48.63360640158856], ""type"": ""Point""}";arret_logique_reseau_breizhgo_car.D35DNDFOY1;D35DNDFOY1;Dinard /Foyer Logement;35093;Dinard;-2.06665;48.6336
47.99942635735726, -1.7759563024308633;"{""coordinates"": [-1.775956302430863, 47.99942635735726], ""type"": ""Point""}";arret_logique_reseau_breizhgo_car.D351322;D351322;Guichen/Pont-Réan;35126;Guichen;-1.77604;47.999596
48.62854610345965, -2.365331278750732;"{""coordinates"": [-2.365331278750732, 48.62854610345965], ""type"": ""Point""}";arret_logique_reseau_breizhgo_car.D221500211;D221500211;Bourg;22179;Fréhel;-2.365435;48.628548
48.11117559277074, -1.7008418169140784;"{""coordinates"": [-1.700841816914078, 48.11117559277074], ""type"": ""Point""}";arret_logique_reseau_breizhgo_car.D35ARCOM@RNMARB;D35ARCOM@RNMARB;Rennes Marbeuf;35238;Rennes;-1.70081;48.1112
48.486798567365035, -4.500540532207096;"{""coordinates"": [-4.500540532207096, 48.486798567365035], ""type"": ""Point""}";arret_logique_reseau_breizhgo_car.D29500228;D29500228;Le Breignou;29015;Bourg-Blanc;-4.5003667;48.48693
48.302124824048214, -3.9547213896000537;"{""coordinates"": [-3.954721389600054, 48.302124824048214], ""type"": ""Point""}";arret_logique_reseau_breizhgo_car.D29500231;D29500231;Place de la Liberté;29016;Brasparts;-3.9547215;48.302124
47.64236618276879, -3.1540224939973713;"{""coordinates"": [-3.154022493997371, 47.64236618276879], ""type"": ""Point""}";arret_logique_reseau_breizhgo_car.D562000283;D562000283;Gare Routière;56054;Erdeven;-3.1538653;47.642303
48.00061759513787, -2.1076533909108974;"{""coordinates"": [-2.107653390910897, 48.00061759513787], ""type"": ""Point""}";arret_logique_reseau_breizhgo_car.D35PLGVIEU2;D35PLGVIEU2;Plélan /Le Vieux Bourg;35223;Plélan-le-Grand;-2.10766;48.0006
48.27101784934882, -3.5541497500364017;"{""coordinates"": [-3.554149750036402, 48.27101784934882], ""type"": ""Point""}";arret_logique_reseau_breizhgo_car.D29500557;D29500557;Kerampuil (Lycée Diwan);29024;Carhaix-Plouguer;-3.5557485;48.271374
48.315193763248296, -4.548912129799944;"{""coordinates"": [-4.548912129799944, 48.315193763248296], ""type"": ""Point""}";arret_logique_reseau_breizhgo_car.D29505322;D29505322;Place de la Poste;29238;Roscanvel;-4.548912;48.315193
48.483676790807486, -2.577617721811781;"{""coordinates"": [-2.577617721811781, 48.483676790807486], ""type"": ""Point""}";arret_logique_reseau_breizhgo_car.D221500115;D221500115;Belle ville;22044;Coëtmieux;-2.5775535;48.483814
47.558424878204896, -3.1343866764669217;"{""coordinates"": [-3.134386676466922, 47.558424878204896], ""type"": ""Point""}";arret_logique_reseau_breizhgo_car.D562000508;D562000508;Penthièvre;56234;Saint-Pierre-Quiberon;-3.1343012;47.558502
48.44729651649147, -1.9160379881768914;"{""coordinates"": [-1.916037988176891, 48.44729651649147], ""type"": ""Point""}";arret_logique_reseau_breizhgo_car.D35ARCOM@SPPCE;D35ARCOM@SPPCE;Saint-Pierre-de-Plesguen Gare intermodale;35308;Mesnil-Roc'h;-1.91611;48.4473
48.55380762261567, -4.404448831181452;"{""coordinates"": [-4.404448831181452, 48.55380762261567], ""type"": ""Point""}";arret_logique_reseau_breizhgo_car.D29502523;D29502523;Bourg;29126;Loc-Brévalaire;-4.404388;48.553833
48.18002671743941, -1.9397935502745351;"{""coordinates"": [-1.939793550274535, 48.18002671743941], ""type"": ""Point""}";arret_logique_reseau_breizhgo_car.D35BEDBAR1;D35BEDBAR1;Bédée/Barenton;35023;Bédée;-1.93985;48.1801
48.3325000004835, -1.824439997796875;"{""coordinates"": [-1.824439997796875, 48.3325000004835], ""type"": ""Point""}";arret_logique_reseau_breizhgo_car.D35TINBEL1;D35TINBEL1;Tinténiac /Lycée Bel Air;35337;Tinténiac;-1.82502;48.3327
48.249508519630965, -1.9500920253549827;"{""coordinates"": [-1.950092025354983, 48.249508519630965], ""type"": ""Point""}";arret_logique_reseau_breizhgo_car.D35IROEGL2;D35IROEGL2;Irodouer /Église;35135;Irodouër;-1.95016;48.2495
48.0559665237185, -4.593422751248741;"{""coordinates"": [-4.593422751248741, 48.0559665237185], ""type"": ""Point""}";arret_logique_reseau_breizhgo_car.D29501483;D29501483;Bourg;29063;Goulien;-4.5931706;48.055996
48.40318409397578, -4.481045589667453;"{""coordinates"": [-4.481045589667453, 48.40318409397578], ""type"": ""Point""}";arret_logique_reseau_breizhgo_car.D29500331;D29500331;Montaigne;29019;Brest;-4.4813147;48.402946
48.65460982770364, -4.174966848966184;"{""coordinates"": [-4.174966848966184, 48.65460982770364], ""type"": ""Point""}";arret_logique_reseau_breizhgo_car.D29503955;D29503955;Place Wanfried;29185;Plouescat;-4.1751323;48.654552
47.90348522728744, -4.292497030208926;"{""coordinates"": [-4.292497030208926, 47.90348522728744], ""type"": ""Point""}";arret_logique_reseau_breizhgo_car.D29503535;D29503535;Route de Tréogat;29174;Plonéour-Lanvern;-4.292399;47.903576
48.27851198340938, -3.572598313582796;"{""coordinates"": [-3.572598313582796, 48.27851198340938], ""type"": ""Point""}";arret_logique_reseau_breizhgo_car.D221500168;D221500168;CARHAIX Champ de Foire;29024;Carhaix-Plouguer;-3.5725322;48.278454
48.12341335404028, -1.6597878223126616;"{""coordinates"": [-1.659787822312662, 48.12341335404028], ""type"": ""Point""}";arret_logique_reseau_breizhgo_car.D353259;D353259;RENNES Painlevé;35238;Rennes;-1.659355;48.123688
48.51570524537935, -2.599398568852297;"{""coordinates"": [-2.599398568852297, 48.51570524537935], ""type"": ""Point""}";arret_logique_reseau_breizhgo_car.D221501391;D221501391;La Ville Tinguy;22093;Lamballe-Armor;-2.599502;48.515682
48.632500650574805, -2.083430292501782;"{""coordinates"": [-2.083430292501782, 48.632500650574805], ""type"": ""Point""}";arret_logique_reseau_breizhgo_car.D35ARCOM@SLUFOUR;D35ARCOM@SLUFOUR;Saint-Lunaire La Fourberie;35287;Saint-Lunaire;-2.08343;48.6325
48.575797979013196, -2.502518007460891;"{""coordinates"": [-2.502518007460891, 48.575797979013196], ""type"": ""Point""}";arret_logique_reseau_breizhgo_car.D221500868;D221500868;PLENEUF VAL ANDRE La Croix des Landes;22273;Saint-Alban;-2.5025275;48.575863
47.963058978878834, -1.8021387325644236;"{""coordinates"": [-1.802138732564424, 47.963058978878834], ""type"": ""Point""}";arret_logique_reseau_breizhgo_car.D351330;D351330;Guichen/Landes;35126;Guichen;-1.802355;47.963036
48.33401688455204, -2.236172664822786;"{""coordinates"": [-2.236172664822786, 48.33401688455204], ""type"": ""Point""}";arret_logique_reseau_breizhgo_car.D221500058;D221500058;Gare SNCF;22020;Broons;-2.2361538;48.333942
48.61679999905022, -2.0586800000000376;"{""coordinates"": [-2.05868, 48.61679999905022], ""type"": ""Point""}";arret_logique_reseau_breizhgo_car.D35ARCOM@DNDVILL;D35ARCOM@DNDVILL;Dinard Ville-ès-Menier;35093;Dinard;-2.05868;48.6168
48.436001685542465, -2.056099992630309;"{""coordinates"": [-2.056099992630309, 48.436001685542465], ""type"": ""Point""}";arret_logique_reseau_breizhgo_car.D221500338;D221500338;LEHON La Nourais;22050;Dinan;-2.0561602;48.435993
47.724916465904826, -3.0110211914623686;"{""coordinates"": [-3.011021191462369, 47.724916465904826], ""type"": ""Point""}";arret_logique_reseau_breizhgo_car.D562000144;D562000144;Brec'h/Les 4 Chemins;56023;Brech;-3.0114062;47.725235
48.670049876559865, -2.889341797336765;"{""coordinates"": [-2.889341797336765, 48.670049876559865], ""type"": ""Point""}";arret_logique_reseau_breizhgo_car.D221500800;D221500800;Keregal;22222;Plouha;-2.889387;48.670006
48.29354774381738, -1.5903894603150803;"{""coordinates"": [-1.59038946031508, 48.29354774381738], ""type"": ""Point""}";arret_logique_reseau_breizhgo_car.D352597;D352597;ANDOUILLE-NEUVILLE Mairie;35003;Andouillé-Neuville;-1.5905132;48.293568
48.78284239735139, -3.0554642878999494;"{""coordinates"": [-3.055464287899949, 48.78284239735139], ""type"": ""Point""}";arret_logique_reseau_breizhgo_car.D221500533;D221500533;Collège Chombart de Lauwe;22162;Paimpol;-3.0554643;48.78284
48.35776559789746, -2.1254628358328804;"{""coordinates"": [-2.12546283583288, 48.35776559789746], ""type"": ""Point""}";arret_logique_reseau_breizhgo_car.D221500766;D221500766;Centre;22239;Plumaudan;-2.1257415;48.358006
48.49482224351292, -2.715891791015202;"{""coordinates"": [-2.715891791015202, 48.49482224351292], ""type"": ""Point""}";arret_logique_reseau_breizhgo_car.D221500370;D221500370;Centre;22106;Langueux;-2.7157948;48.49499
48.53300384765093, -2.0573056562226393;"{""coordinates"": [-2.057305656222639, 48.53300384765093], ""type"": ""Point""}";arret_logique_reseau_breizhgo_car.D35PGAMAI1;D35PGAMAI1;Pleslin-Trigavou /Mairie;22190;Pleslin-Trigavou;-2.0572;48.533
48.137909949025044, -1.8695341914323271;"{""coordinates"": [-1.869534191432327, 48.137909949025044], ""type"": ""Point""}";arret_logique_reseau_breizhgo_car.D35ARCOM@SGIPIER;D35ARCOM@SGIPIER;St Gilles Pierre Blanche;35275;Saint-Gilles;-1.86944;48.138
48.492822734649465, -4.041287467000036;"{""coordinates"": [-4.041287467000036, 48.492822734649465], ""type"": ""Point""}";arret_logique_reseau_breizhgo_car.D29502006;D29502006;Bourg;29097;Lampaul-Guimiliau;-4.0412874;48.492825
48.487159131549376, -2.584396336400013;"{""coordinates"": [-2.584396336400013, 48.487159131549376], ""type"": ""Point""}";arret_logique_reseau_breizhgo_car.D221501374;D221501374;rue du Marchix;22044;Coëtmieux;-2.5843964;48.48716
47.801785913997904, -4.297059787927572;"{""coordinates"": [-4.297059787927572, 47.801785913997904], ""type"": ""Point""}";arret_logique_reseau_breizhgo_car.D29501616;D29501616;Kerléguer;29072;Le Guilvinec;-4.296744;47.801666
48.2394378991715, -3.2517149428035372;"{""coordinates"": [-3.251714942803537, 48.2394378991715], ""type"": ""Point""}";arret_logique_reseau_breizhgo_car.D221500647;D221500647;Centre;22220;Plouguernével;-3.2516818;48.239555
47.802475504645216, -3.2706379735000017;"{""coordinates"": [-3.270637973500002, 47.802475504645216], ""type"": ""Point""}";arret_logique_reseau_breizhgo_car.D562000522;D562000522;Kerihouais;56083;Hennebont;-3.270638;47.802475
48.58517188538754, -2.1961580761697204;"{""coordinates"": [-2.19615807616972, 48.58517188538754], ""type"": ""Point""}";arret_logique_reseau_breizhgo_car.D221501115;D221501115;ST JACUT Rd Pt du Ruet;22302;Saint-Jacut-de-la-Mer;-2.196049;48.585163
48.59725219405066, -2.4752084574984843;"{""coordinates"": [-2.475208457498484, 48.59725219405066], ""type"": ""Point""}";arret_logique_reseau_breizhgo_car.D221500197;D221500197;La Couture;22054;Erquy;-2.47512;48.597248
48.57992430501054, -3.229889061544137;"{""coordinates"": [-3.229889061544137, 48.57992430501054], ""type"": ""Point""}";arret_logique_reseau_breizhgo_car.D221500612;D221500612;Le Manège;22164;Pédernec;-3.2299368;48.579876
47.87381938354053, -4.122257116225174;"{""coordinates"": [-4.122257116225174, 47.87381938354053], ""type"": ""Point""}";arret_logique_reseau_breizhgo_car.D29500826;D29500826;Sainte-Marine Kergrand;29037;Combrit;-4.1222086;47.87392
48.288803799160405, -1.800811179227123;"{""coordinates"": [-1.800811179227123, 48.288803799160405], ""type"": ""Point""}";arret_logique_reseau_breizhgo_car.D35ARCOM@SSYBEL;D35ARCOM@SSYBEL;Saint-Symphorien Bel Air;35317;Saint-Symphorien;-1.80073;48.2888
48.43952905843997, -2.6863185839365973;"{""coordinates"": [-2.686318583936597, 48.43952905843997], ""type"": ""Point""}";arret_logique_reseau_breizhgo_car.D221500899;D221500899;Croix au Miot;22258;Quessoy;-2.6861396;48.439682
48.111444577650374, -1.7013018861867513;"{""coordinates"": [-1.701301886186751, 48.111444577650374], ""type"": ""Point""}";arret_logique_reseau_breizhgo_car.D35RNMARB2;D35RNMARB2;Rennes /Marbeuf;35238;Rennes;-1.70136;48.1114
47.8536494056608, -3.8146765815918298;"{""coordinates"": [-3.81467658159183, 47.8536494056608], ""type"": ""Point""}";arret_logique_reseau_breizhgo_car.D29506332;D29506332;Beg Postillon;29293;Trégunc;-3.814553;47.853626
48.19340741670443, -2.4148993453064436;"{""coordinates"": [-2.414899345306444, 48.19340741670443], ""type"": ""Point""}";arret_logique_reseau_breizhgo_car.D221500476;D221500476;Eglise;22147;Merdrignac;-2.4146705;48.193535
47.99454066785528, -4.111161587026651;"{""coordinates"": [-4.111161587026651, 47.99454066785528], ""type"": ""Point""}";arret_logique_reseau_breizhgo_car.D29505164;D29505164;Place de la Tour d'Auvergne;29232;Quimper;-4.1111703;47.994377
47.98886452868575, -1.7808652919656889;"{""coordinates"": [-1.780865291965689, 47.98886452868575], ""type"": ""Point""}";arret_logique_reseau_breizhgo_car.D351324;D351324;Guichen/Haut des Buttes;35126;Guichen;-1.781371;47.988518
48.5943998419501, -4.557832863100036;"{""coordinates"": [-4.557832863100036, 48.5943998419501], ""type"": ""Point""}";arret_logique_reseau_breizhgo_car.D29502141;D29502141;An Ode Bri;29101;Landéda;-4.5578327;48.5944
48.06195896970269, -2.9663080130632618;"{""coordinates"": [-2.966308013063262, 48.06195896970269], ""type"": ""Point""}";arret_logique_reseau_breizhgo_car.DREGLRRNS:ST:PON9D2;DREGLRRNS:ST:PON9D2;Pontivy Gare SNCF;56178;Pontivy;-2.9661589;48.06194
48.56282230296453, -2.1219373822482397;"{""coordinates"": [-2.12193738224824, 48.56282230296453], ""type"": ""Point""}";arret_logique_reseau_breizhgo_car.D221500543;D221500543;PLOUBALAY Croix Outil;22209;Beaussais-sur-Mer;-2.1220043;48.56279
48.47361533081304, -4.639876853533033;"{""coordinates"": [-4.639876853533033, 48.47361533081304], ""type"": ""Point""}";arret_logique_reseau_breizhgo_car.D29502410;D29502410;Bourg;29119;Lanrivoaré;-4.6401644;48.47382
47.834000829926886, -3.1594987333636544;"{""coordinates"": [-3.159498733363654, 47.834000829926886], ""type"": ""Point""}";arret_logique_reseau_breizhgo_car.D562000555;D562000555;Place Guillerme;56101;Languidic;-3.1595259;47.83406
48.59724489272876, -3.2693081368460404;"{""coordinates"": [-3.26930813684604, 48.59724489272876], ""type"": ""Point""}";arret_logique_reseau_breizhgo_car.D221500610;D221500610;Centre;22164;Pédernec;-3.2692568;48.597183
48.058229442025066, -1.8730102718096369;"{""coordinates"": [-1.873010271809637, 48.058229442025066], ""type"": ""Point""}";arret_logique_reseau_breizhgo_car.D35ARCOM@B/MPARC;D35ARCOM@B/MPARC;Bréal Parc d'Activités;35037;Bréal-sous-Montfort;-1.87309;48.0582
48.532669025766495, -4.726659637312731;"{""coordinates"": [-4.726659637312731, 48.532669025766495], ""type"": ""Point""}";arret_logique_reseau_breizhgo_car.D29502287;D29502287;Bourg;29109;Landunvez;-4.7265964;48.53268
47.6600763077867, -2.789137704870814;"{""coordinates"": [-2.789137704870814, 47.6600763077867], ""type"": ""Point""}";arret_logique_reseau_breizhgo_car.D562000022;D562000022;Le Fourchêne;56260;Vannes;-2.7894375;47.660168
48.43678692462657, -2.0708348869000814;"{""coordinates"": [-2.070834886900081, 48.43678692462657], ""type"": ""Point""}";arret_logique_reseau_breizhgo_car.D221500337;D221500337;LEHON La Cochais 2;22050;Dinan;-2.0707932;48.43682
48.15549999904738, -1.8262100000000312;"{""coordinates"": [-1.82621, 48.15549999904738], ""type"": ""Point""}";arret_logique_reseau_breizhgo_car.D35ARCOM@SGICIM;D35ARCOM@SGICIM;St Gilles Rue de Rennes Cimetière;35275;Saint-Gilles;-1.82621;48.1555
48.41030611218668, -4.532532770544477;"{""coordinates"": [-4.532532770544477, 48.41030611218668], ""type"": ""Point""}";arret_logique_reseau_breizhgo_car.D29501585;D29501585;Penfeld;29069;Guilers;-4.5321536;48.410442
48.09380187322312, -1.6742634294314136;"{""coordinates"": [-1.674263429431414, 48.09380187322312], ""type"": ""Point""}";arret_logique_reseau_breizhgo_car.D35863;D35863;Rennes/Clémenceau;35238;Rennes;-1.674614;48.093277
47.743378361944856, -3.3820849176999883;"{""coordinates"": [-3.382084917699988, 47.743378361944856], ""type"": ""Point""}";arret_logique_reseau_breizhgo_car.D562000528;D562000528;Arrêt des Lycées;56121;Lorient;-3.3820848;47.743378
47.994574440146394, -4.093154568299956;"{""coordinates"": [-4.093154568299956, 47.994574440146394], ""type"": ""Point""}";arret_logique_reseau_breizhgo_car.D29505130;D29505130;Gare Routière SNCF;29232;Quimper;-4.0931544;47.994576
48.10272849477733, -1.6612555603931747;"{""coordinates"": [-1.661255560393175, 48.10272849477733], ""type"": ""Point""}";arret_logique_reseau_breizhgo_car.D351256;D351256;Rennes/Croix Saint-Hélier;35238;Rennes;-1.661439;48.10287
47.738931731816784, -2.6946456528173144;"{""coordinates"": [-2.694645652817314, 47.738931731816784], ""type"": ""Point""}";arret_logique_reseau_breizhgo_car.D562000398;D562000398;Corn Er Hoët;56137;Monterblanc;-2.69468;47.739006
48.63238074046648, -2.2570296185519463;"{""coordinates"": [-2.257029618551946, 48.63238074046648], ""type"": ""Point""}";arret_logique_reseau_breizhgo_car.D221501050;D221501050;ST CAST Office Tourisme;22282;Saint-Cast-le-Guildo;-2.257282;48.632347
48.4852349908733, -2.661750244971213;"{""coordinates"": [-2.661750244971213, 48.4852349908733], ""type"": ""Point""}";arret_logique_reseau_breizhgo_car.D221500272;D221500272;HILLION Dernier Sou;22389;Yffiniac;-2.6617522;48.485188
48.35673987619866, -1.7157642952414693;"{""coordinates"": [-1.715764295241469, 48.35673987619866], ""type"": ""Point""}";arret_logique_reseau_breizhgo_car.D352802;D352802;DINGE Centre;35094;Dingé;-1.7155867;48.35687
48.61607258490813, -4.514749199504182;"{""coordinates"": [-4.514749199504182, 48.61607258490813], ""type"": ""Point""}";arret_logique_reseau_breizhgo_car.D29504144;D29504144;La Martyre;29195;Plouguerneau;-4.5146356;48.616177
48.246236092841244, -1.7230311442069532;"{""coordinates"": [-1.723031144206953, 48.246236092841244], ""type"": ""Point""}";arret_logique_reseau_breizhgo_car.D353022;D353022;MONTREUIL-LE-GAST Les Bégonias;35193;Montreuil-le-Gast;-1.7230647;48.24632
47.517186373761355, -2.5718176943860693;"{""coordinates"": [-2.571817694386069, 47.517186373761355], ""type"": ""Point""}";arret_logique_reseau_breizhgo_car.D562000188;D562000188;Albatros;56052;Damgan;-2.5717354;47.517193
48.63303992122666, -2.3260541482858352;"{""coordinates"": [-2.326054148285835, 48.63303992122666], ""type"": ""Point""}";arret_logique_reseau_breizhgo_car.D221500872;D221500872;Trécelin;22201;Plévenon;-2.3260353;48.632984
47.8731086629269, -3.0203030997257687;"{""coordinates"": [-3.020303099725769, 47.8731086629269], ""type"": ""Point""}";arret_logique_reseau_breizhgo_car.D562000182;D562000182;Champ de foire;56010;Baud;-3.020303;47.873116
48.365967439796286, -4.663650797048701;"{""coordinates"": [-4.663650797048701, 48.365967439796286], ""type"": ""Point""}";arret_logique_reseau_breizhgo_car.D29502576;D29502576;Kerilio;29130;Locmaria-Plouzané;-4.663275;48.36607
48.02072992877803, -4.530196729002001;"{""coordinates"": [-4.530196729002001, 48.02072992877803], ""type"": ""Point""}";arret_logique_reseau_breizhgo_car.D29504345;D29504345;Rue de Locqueran;29197;Plouhinec;-4.529207;48.02044
48.506799999049505, -1.8884399999999921;"{""coordinates"": [-1.88844, 48.506799999049505], ""type"": ""Point""}";arret_logique_reseau_breizhgo_car.D35MIMBUTT1;D35MIMBUTT1;Miniac-Morvan/ La Butte;35179;Miniac-Morvan;-1.88844;48.5068
48.39448811133117, -1.89849477186344;"{""coordinates"": [-1.89849477186344, 48.39448811133117], ""type"": ""Point""}";arret_logique_reseau_breizhgo_car.D35PLEGARE1;D35PLEGARE1;Pleugueneuc /L'Ancienne Gare;35226;Pleugueneuc;-1.89842;48.3945
48.75944707769688, -3.015235004632034;"{""coordinates"": [-3.015235004632034, 48.75944707769688], ""type"": ""Point""}";arret_logique_reseau_breizhgo_car.D221500512;D221500512;KERITY Cosquellou;22162;Paimpol;-3.01533;48.759453
48.01571028269286, -2.0612167758332;"{""coordinates"": [-2.0612167758332, 48.01571028269286], ""type"": ""Point""}";arret_logique_reseau_breizhgo_car.D35PLGNEAR2;D35PLGNEAR2;Plélan /Le Néard;35223;Plélan-le-Grand;-2.06121;48.0157
48.603729308834055, -2.9543025147932593;"{""coordinates"": [-2.954302514793259, 48.603729308834055], ""type"": ""Point""}";arret_logique_reseau_breizhgo_car.D221501254;D221501254;Ribotée;22361;Tréguidel;-2.9546366;48.603634
48.60703836997143, -2.034206301861048;"{""coordinates"": [-2.034206301861048, 48.60703836997143], ""type"": ""Point""}";arret_logique_reseau_breizhgo_car.D35ARCOM@RICCE;D35ARCOM@RICCE;La Richardais Centre;35241;La Richardais;-2.03429;48.6071
47.85025806724548, -2.4195318562999613;"{""coordinates"": [-2.419531856299961, 47.85025806724548], ""type"": ""Point""}";arret_logique_reseau_breizhgo_car.D562000356;D562000356;Aire de covoiturage;56202;Saint-Abraham;-2.4195318;47.850258
48.10870666432401, -1.6988552008614584;"{""coordinates"": [-1.698855200861458, 48.10870666432401], ""type"": ""Point""}";arret_logique_reseau_breizhgo_car.D35RNLOR2;D35RNLOR2;Rennes /Guilloux-Lorient;35238;Rennes;-1.69885;48.1087
48.513114883191555, -2.7385775404360544;"{""coordinates"": [-2.738577540436054, 48.513114883191555], ""type"": ""Point""}";arret_logique_reseau_breizhgo_car.DREGLRRNS:ST:SBC6A3;DREGLRRNS:ST:SBC6A3;Saint-Brieuc IUT Aurore;22278;Saint-Brieuc;-2.7386675;48.513042
48.361780496072214, -1.206424678562017;"{""coordinates"": [-1.206424678562017, 48.361780496072214], ""type"": ""Point""}";arret_logique_reseau_breizhgo_car.D352842;D352842;FOUGERES Bd St-Germain;35115;Fougères;-1.2071624;48.36199
48.08030963433857, -4.4144499863674405;"{""coordinates"": [-4.41444998636744, 48.08030963433857], ""type"": ""Point""}";arret_logique_reseau_breizhgo_car.D29505037;D29505037;Bourg;29226;Poullan-sur-Mer;-4.414242;48.08016
47.908069829211904, -3.9807488869657917;"{""coordinates"": [-3.980748886965792, 47.908069829211904], ""type"": ""Point""}";arret_logique_reseau_breizhgo_car.D29501313;D29501313;Bourg, La Poste;29057;La Forêt-Fouesnant;-3.9806461;47.90821
48.1086579817761, -1.9289044956426542;"{""coordinates"": [-1.928904495642654, 48.1086579817761], ""type"": ""Point""}";arret_logique_reseau_breizhgo_car.D35TALMAI1;D35TALMAI1;Talensac /Mairie;35331;Talensac;-1.92892;48.1087
47.722640207767135, -1.7312635388750308;"{""coordinates"": [-1.731263538875031, 47.722640207767135], ""type"": ""Point""}";arret_logique_reseau_breizhgo_car.D35875;D35875;Grand-Fougeray/Mairie;35124;Grand-Fougeray;-1.731327;47.722614
48.11117559277074, -1.7008418169140784;"{""coordinates"": [-1.700841816914078, 48.11117559277074], ""type"": ""Point""}";arret_logique_reseau_breizhgo_car.D35RNMARB1;D35RNMARB1;Rennes/Marbeuf;35238;Rennes;-1.70081;48.1112
47.51640641109066, -2.3764024583128243;"{""coordinates"": [-2.376402458312824, 47.51640641109066], ""type"": ""Point""}";arret_logique_reseau_breizhgo_car.D562000077;D562000077;Centre;56004;Arzal;-2.376601;47.516556
47.59894155477626, -3.1146166545117615;"{""coordinates"": [-3.114616654511762, 47.59894155477626], ""type"": ""Point""}";arret_logique_reseau_breizhgo_car.D562000417;D562000417;Place De Gaulle;56168;Plouharnel;-3.114728;47.598934
48.29439151214815, -4.178043763500032;"{""coordinates"": [-4.178043763500032, 48.29439151214815], ""type"": ""Point""}";arret_logique_reseau_breizhgo_car.D29501247;D29501247;Centre;29053;Le Faou;-4.178044;48.29439
47.853850647762094, -1.680177078445899;"{""coordinates"": [-1.680177078445899, 47.853850647762094], ""type"": ""Point""}";arret_logique_reseau_breizhgo_car.D352553;D352553;Bain-de-Bretagne/Château Gaillard;35012;Bain-de-Bretagne;-1.6801338;47.853848
48.04333019527026, -3.913444767923592;"{""coordinates"": [-3.913444767923592, 48.04333019527026], ""type"": ""Point""}";arret_logique_reseau_breizhgo_car.D29501172;D29501172;Croaz Ménez Bris;29049;Elliant;-3.9129593;48.043583
48.519842500728544, -2.118974688422518;"{""coordinates"": [-2.118974688422518, 48.519842500728544], ""type"": ""Point""}";arret_logique_reseau_breizhgo_car.D221500362;D221500362;La Chesnais;22105;Languenan;-2.1190562;48.519894
48.348109021643204, -1.1922847879375877;"{""coordinates"": [-1.192284787937588, 48.348109021643204], ""type"": ""Point""}";arret_logique_reseau_breizhgo_car.D352836;D352836;FOUGERES Gare routière;35115;Fougères;-1.1922824;48.34808
47.8768586389325, -4.112898856619784;"{""coordinates"": [-4.112898856619784, 47.8768586389325], ""type"": ""Point""}";arret_logique_reseau_breizhgo_car.D29500060;D29500060;Centre;29006;Bénodet;-4.1129427;47.87697
48.03274909719179, -1.9105783092030408;"{""coordinates"": [-1.910578309203041, 48.03274909719179], ""type"": ""Point""}";arret_logique_reseau_breizhgo_car.D35STUFREC1;D35STUFREC1;St Thurial/ Les Frêches;35319;Saint-Thurial;-1.91059;48.0328
48.401213028068675, -4.466953738690982;"{""coordinates"": [-4.466953738690982, 48.401213028068675], ""type"": ""Point""}";arret_logique_reseau_breizhgo_car.D29500371;D29500371;Strasbourg rue Valmy;29019;Brest;-4.466898;48.401344
48.55029155624985, -4.539159953700071;"{""coordinates"": [-4.539159953700071, 48.55029155624985], ""type"": ""Point""}";arret_logique_reseau_breizhgo_car.D29506293;D29506293;Mairie;29290;Tréglonou;-4.53916;48.550293
47.99515619657428, -3.393109598817615;"{""coordinates"": [-3.393109598817615, 47.99515619657428], ""type"": ""Point""}";arret_logique_reseau_breizhgo_car.D562000318;D562000318;Mairie;56014;Berné;-3.3930418;47.9952
48.18036082617626, -2.762624711387355;"{""coordinates"": [-2.762624711387355, 48.18036082617626], ""type"": ""Point""}";arret_logique_reseau_breizhgo_car.DREGLRRNS:ST:LDA1A3;DREGLRRNS:ST:LDA1A3;Loudéac Gare SNCF;22136;Loudéac;-2.7625802;48.180374
48.53449216472188, -2.097216840723142;"{""coordinates"": [-2.097216840723142, 48.53449216472188], ""type"": ""Point""}";arret_logique_reseau_breizhgo_car.D221500668;D221500668;TRIGAVOU Le Creux;22190;Pleslin-Trigavou;-2.0972672;48.534595
48.11458486108524, -3.120511047648441;"{""coordinates"": [-3.120511047648441, 48.11458486108524], ""type"": ""Point""}";arret_logique_reseau_breizhgo_car.D562000102;D562000102;Bobès;56242;Séglien;-3.1201353;48.114468
48.5068317268956, -1.243974713536143;"{""coordinates"": [-1.243974713536143, 48.5068317268956], ""type"": ""Point""}";arret_logique_reseau_breizhgo_car.D353359;D353359;ST-GEORGES-DE-REINTEMBAULT Place A. Dubois;35271;Saint-Georges-de-Reintembault;-1.2440084;48.50672
48.18533029531536, -2.182040638719;"{""coordinates"": [-2.182040638719, 48.18533029531536], ""type"": ""Point""}";arret_logique_reseau_breizhgo_car.D35SMELOUI1;D35SMELOUI1;St Méen /Rue Lousion Bobet;35297;Saint-Méen-le-Grand;-2.18208;48.1854
48.70006905523617, -3.987395811752955;"{""coordinates"": [-3.987395811752955, 48.70006905523617], ""type"": ""Point""}";arret_logique_reseau_breizhgo_car.D29505707;D29505707;Trofeunteun;29259;Saint-Pol-de-Léon;-3.9871376;48.7001
47.99460936551783, -4.101823716904102;"{""coordinates"": [-4.101823716904102, 47.99460936551783], ""type"": ""Point""}";arret_logique_reseau_breizhgo_car.D29505211;D29505211;Dupleix;29232;Quimper;-4.1018467;47.994698
47.92494791634116, -4.089461357556847;"{""coordinates"": [-4.089461357556847, 47.92494791634116], ""type"": ""Point""}";arret_logique_reseau_breizhgo_car.D29501452;D29501452;Ty Laë;29060;Gouesnach;-4.089551;47.924873
48.28671001674816, -4.505915663300055;"{""coordinates"": [-4.505915663300055, 48.28671001674816], ""type"": ""Point""}";arret_logique_reseau_breizhgo_car.D29501001;D29501001;Le Fret Port;29042;Crozon;-4.5059156;48.28671
48.09766273845182, -4.212491688760425;"{""coordinates"": [-4.212491688760425, 48.09766273845182], ""type"": ""Point""}";arret_logique_reseau_breizhgo_car.D29502599;D29502599;Mission;29134;Locronan;-4.21247;48.097694
48.13219099904722, -1.5964730000000171;"{""coordinates"": [-1.596473, 48.13219099904722], ""type"": ""Point""}";arret_logique_reseau_breizhgo_car.D356471;D356471;CESSON-SEVIGNE Village Collectivités;35334;Thorigné-Fouillard;-1.596473;48.13219
48.55746620323777, -2.29069218092851;"{""coordinates"": [-2.29069218092851, 48.55746620323777], ""type"": ""Point""}";arret_logique_reseau_breizhgo_car.D221501174;D221501174;ST POTAN Bourg;22323;Saint-Pôtan;-2.2910469;48.55739
47.60474356715165, -2.9933842736992493;"{""coordinates"": [-2.993384273699249, 47.60474356715165], ""type"": ""Point""}";arret_logique_reseau_breizhgo_car.D562000248;D562000248;CRAC'H_Mané Lenn;56046;Crach;-2.9932988;47.60447
48.68104638085061, -3.9889981027000525;"{""coordinates"": [-3.988998102700053, 48.68104638085061], ""type"": ""Point""}";arret_logique_reseau_breizhgo_car.D29505705;D29505705;Avenue des Carmes;29259;Saint-Pol-de-Léon;-3.9889982;48.681046
47.84523524370777, -2.718166820335583;"{""coordinates"": [-2.718166820335583, 47.84523524370777], ""type"": ""Point""}";arret_logique_reseau_breizhgo_car.D562000566;D562000566;St-Jean-Brevelay/Place du Général de Gaulle;56222;Saint-Jean-Brévelay;-2.7181668;47.845238
48.36860572634869, -4.734633204500058;"{""coordinates"": [-4.734633204500058, 48.36860572634869], ""type"": ""Point""}";arret_logique_reseau_breizhgo_car.D29506222;D29506222;Relais de Trébabu;29282;Trébabu;-4.734633;48.368607
48.519683539737876, -2.4406439154219517;"{""coordinates"": [-2.440643915421952, 48.519683539737876], ""type"": ""Point""}";arret_logique_reseau_breizhgo_car.D221500919;D221500919;QUINTENIC Embranchement;22077;Hénansal;-2.4407642;48.51956
48.557599999049884, -1.9299700000000444;"{""coordinates"": [-1.92997, 48.557599999049884], ""type"": ""Point""}";arret_logique_reseau_breizhgo_car.D35CHNCARR2;D35CHNCARR2;Châteauneuf /La Carrée;35070;Châteauneuf-d'Ille-et-Vilaine;-1.92997;48.5576
48.47200775476406, -4.3375498653935995;"{""coordinates"": [-4.3375498653936, 48.47200775476406], ""type"": ""Point""}";arret_logique_reseau_breizhgo_car.D29505841;D29505841;Rue des Ajoncs;29268;Saint-Thonan;-4.337232;48.472115
48.06555237294767, -4.257158389595305;"{""coordinates"": [-4.257158389595305, 48.06555237294767], ""type"": ""Point""}";arret_logique_reseau_breizhgo_car.D29501871;D29501871;Mairie;29087;Le Juch;-4.257172;48.06557
48.17524731364412, -1.4651000789113993;"{""coordinates"": [-1.465100078911399, 48.17524731364412], ""type"": ""Point""}";arret_logique_reseau_breizhgo_car.D352695;D352695;LA-BOUEXIERE Butte aux Sangliers;35031;La Bouëxière;-1.4650497;48.175293
48.524910403339, -2.312135755812007;"{""coordinates"": [-2.312135755812007, 48.524910403339], ""type"": ""Point""}";arret_logique_reseau_breizhgo_car.D221500845;D221500845;Basse Ville Oreu;22237;Pluduno;-2.3114579;48.525043
48.630366327475905, -4.51735890431443;"{""coordinates"": [-4.51735890431443, 48.630366327475905], ""type"": ""Point""}";arret_logique_reseau_breizhgo_car.D29504159;D29504159;Trolouch;29195;Plouguerneau;-4.5175195;48.63032
48.05071106102164, -4.427349710895682;"{""coordinates"": [-4.427349710895682, 48.05071106102164], ""type"": ""Point""}";arret_logique_reseau_breizhgo_car.D29502780;D29502780;Bourg;29145;Confort-Meilars;-4.427302;48.050568
48.59164403453867, -2.492139139012694;"{""coordinates"": [-2.492139139012694, 48.59164403453867], ""type"": ""Point""}";arret_logique_reseau_breizhgo_car.D221500189;D221500189;Bien Assis;22054;Erquy;-2.4921196;48.591778
48.10904321480222, -2.8948931048197597;"{""coordinates"": [-2.89489310481976, 48.10904321480222], ""type"": ""Point""}";arret_logique_reseau_breizhgo_car.DREGLRRNS:SGD1A1;DREGLRRNS:SGD1A1;Bel Air;56213;Saint-Gérand;-2.8954206;48.10893
48.54928700094984, -4.706813787099965;"{""coordinates"": [-4.706813787099965, 48.54928700094984], ""type"": ""Point""}";arret_logique_reseau_breizhgo_car.D29502303;D29502303;Kersaint;29109;Landunvez;-4.706814;48.549286
48.10885750860696, -1.7101699578533918;"{""coordinates"": [-1.710169957853392, 48.10885750860696], ""type"": ""Point""}";arret_logique_reseau_breizhgo_car.D35RNGENI1;D35RNGENI1;Rennes /Géniaux;35238;Rennes;-1.71061;48.1089
48.59406859021819, -4.137970950378004;"{""coordinates"": [-4.137970950378004, 48.59406859021819], ""type"": ""Point""}";arret_logique_reseau_breizhgo_car.D29505867;D29505867;Bourg;29271;Saint-Vougay;-4.137919;48.594196
47.820004850445365, -2.4387056188999665;"{""coordinates"": [-2.438705618899967, 47.820004850445365], ""type"": ""Point""}";arret_logique_reseau_breizhgo_car.D562000311;D562000311;Le Gros Chêne;56244;Sérent;-2.4387057;47.820004
48.775254320685406, -3.1445126129605785;"{""coordinates"": [-3.144512612960578, 48.775254320685406], ""type"": ""Point""}";arret_logique_reseau_breizhgo_car.D221500720;D221500720;Le Rucorel;22196;Pleudaniel;-3.1444366;48.775402
48.45161625543962, -2.130325233153882;"{""coordinates"": [-2.130325233153882, 48.45161625543962], ""type"": ""Point""}";arret_logique_reseau_breizhgo_car.D221500007;D221500007;Freschais;22003;Aucaleuc;-2.13023;48.45159
48.13142938672792, -1.8446519206469936;"{""coordinates"": [-1.844651920646994, 48.13142938672792], ""type"": ""Point""}";arret_logique_reseau_breizhgo_car.D35ARCOM@CHTPONT;D35ARCOM@CHTPONT;La Chapelle-Thouarault Pont Harel;35065;La Chapelle-Thouarault;-1.84463;48.1315
47.994723285775315, -4.108082405934399;"{""coordinates"": [-4.108082405934399, 47.994723285775315], ""type"": ""Point""}";arret_logique_reseau_breizhgo_car.D29505177;D29505177;Saint Mathieu;29232;Quimper;-4.107984;47.994762
48.34077307048982, -1.2786745162203081;"{""coordinates"": [-1.278674516220308, 48.34077307048982], ""type"": ""Point""}";arret_logique_reseau_breizhgo_car.D356889;D356889;ROMAGNE Bas du Bourg;35243;Romagné;-1.278862;48.34062
48.33453117269103, -1.8441899406128723;"{""coordinates"": [-1.844189940612872, 48.33453117269103], ""type"": ""Point""}";arret_logique_reseau_breizhgo_car.D35ARCOM@TINLAM;D35ARCOM@TINLAM;Tinténiac Lamennais;35337;Tinténiac;-1.84426;48.3345
48.10743459412235, -1.674910630685293;"{""coordinates"": [-1.674910630685293, 48.10743459412235], ""type"": ""Point""}";arret_logique_reseau_breizhgo_car.D35ARCOM@RNTNB;D35ARCOM@RNTNB;Rennes Liberté TNB;35238;Rennes;-1.67491;48.1074
47.893094822245736, -4.331706909700012;"{""coordinates"": [-4.331706909700012, 47.893094822245736], ""type"": ""Point""}";arret_logique_reseau_breizhgo_car.D29506318;D29506318;Centre;29292;Tréguennec;-4.331707;47.893093
48.78291140080182, -3.055432694948255;"{""coordinates"": [-3.055432694948255, 48.78291140080182], ""type"": ""Point""}";arret_logique_reseau_breizhgo_car.D221500530;D221500530;Coll. Chombart de Lauwe;22162;Paimpol;-3.05543;48.78288
48.567870728070346, -3.290336348838469;"{""coordinates"": [-3.290336348838469, 48.567870728070346], ""type"": ""Point""}";arret_logique_reseau_breizhgo_car.D221500632;D221500632;Le Hinguer;22164;Pédernec;-3.290328;48.567825
48.25559999904798, -1.397971666000033;"{""coordinates"": [-1.397971666000033, 48.25559999904798], ""type"": ""Point""}";arret_logique_reseau_breizhgo_car.D356479;D356479;ST-AUBIN-DU-CORMIER Pk Collège Ste-Anne;35253;Saint-Aubin-du-Cormier;-1.3979716;48.2556
47.84923898390475, -4.040534301053819;"{""coordinates"": [-4.040534301053819, 47.84923898390475], ""type"": ""Point""}";arret_logique_reseau_breizhgo_car.D29501369;D29501369;L'estran;29058;Fouesnant;-4.0405807;47.849243
48.312955875584144, -1.898717310147784;"{""coordinates"": [-1.898717310147784, 48.312955875584144], ""type"": ""Point""}";arret_logique_reseau_breizhgo_car.D35LABCE1;D35LABCE1;La Baussaine/ Centre;35017;La Baussaine;-1.89872;48.313
47.93658964820914, -4.018873006084128;"{""coordinates"": [-4.018873006084128, 47.93658964820914], ""type"": ""Point""}";arret_logique_reseau_breizhgo_car.D29505519;D29505519;Rue d'Argoat;29247;Saint-Évarzec;-4.0188527;47.936504
48.495106801589586, -2.004371879340315;"{""coordinates"": [-2.004371879340315, 48.495106801589586], ""type"": ""Point""}";arret_logique_reseau_breizhgo_car.D221501207;D221501207;ST SAMSON la Hisse;22327;Saint-Samson-sur-Rance;-2.0044255;48.49521
48.82031999910803, -3.0984403319396354;"{""coordinates"": [-3.098440331939635, 48.82031999910803], ""type"": ""Point""}";arret_logique_reseau_breizhgo_car.D221501386;D221501386;Coat Ar Raden-Carf D20;22127;Lézardrieux;-3.0983653;48.820312
48.43276447094908, -4.778782520899965;"{""coordinates"": [-4.778782520899965, 48.43276447094908], ""type"": ""Point""}";arret_logique_reseau_breizhgo_car.D29503659;D29503659;Route de Kerescar;29177;Plouarzel;-4.7787824;48.432766
48.45659938662239, -2.053499880446392;"{""coordinates"": [-2.053499880446392, 48.45659938662239], ""type"": ""Point""}";arret_logique_reseau_breizhgo_car.D35DINGA1;D35DINGA1;Dinan /Bd Simone Veil;22050;Dinan;-2.0535;48.4566
47.918724503187846, -1.4312098804088964;"{""coordinates"": [-1.431209880408896, 47.918724503187846], ""type"": ""Point""}";arret_logique_reseau_breizhgo_car.D352117;D352117;Le Theil-de-Bretagne/Gare;35333;Le Theil-de-Bretagne;-1.4311852;47.91877
47.69620981454457, -2.89810496800004;"{""coordinates"": [-2.89810496800004, 47.69620981454457], ""type"": ""Point""}";arret_logique_reseau_breizhgo_car.D562000058;D562000058;Mériadec Centre;56176;Pluneret;-2.898105;47.69621
48.188303670639066, -2.188334568746683;"{""coordinates"": [-2.188334568746683, 48.188303670639066], ""type"": ""Point""}";arret_logique_reseau_breizhgo_car.D35ARCOM@SMEFOCH;D35ARCOM@SMEFOCH;St Méen Avenue Foch;35297;Saint-Méen-le-Grand;-2.18831;48.1884
47.99399472605063, -3.89724246076961;"{""coordinates"": [-3.89724246076961, 47.99399472605063], ""type"": ""Point""}";arret_logique_reseau_breizhgo_car.D29501201;D29501201;Piscine;29049;Elliant;-3.8972728;47.99396
48.133203047799626, -2.1350363015669966;"{""coordinates"": [-2.135036301566997, 48.133203047799626], ""type"": ""Point""}";arret_logique_reseau_breizhgo_car.D35MUECAM1;D35MUECAM1;Muel /Cameur Trégouët;35201;Muel;-2.13536;48.1332
48.284899372897314, -1.8886949416248175;"{""coordinates"": [-1.888694941624818, 48.284899372897314], ""type"": ""Point""}";arret_logique_reseau_breizhgo_car.D35ARCOM@CRCCE;D35ARCOM@CRCCE;Cardroc Centre;35050;Cardroc;-1.88869;48.2849
48.461499246799775, -2.9498199779886067;"{""coordinates"": [-2.949819977988607, 48.461499246799775], ""type"": ""Point""}";arret_logique_reseau_breizhgo_car.D221500129;D221500129;Le Bourg;22045;Cohiniac;-2.949631;48.46151
48.59919999905016, -1.9724100000000202;"{""coordinates"": [-1.97241, 48.59919999905016], ""type"": ""Point""}";arret_logique_reseau_breizhgo_car.D35ARCOM@SJOCE;D35ARCOM@SJOCE;Saint-Jouan Centre;35284;Saint-Jouan-des-Guérets;-1.97241;48.5992
48.569113511271716, -2.1309923019428725;"{""coordinates"": [-2.130992301942872, 48.569113511271716], ""type"": ""Point""}";arret_logique_reseau_breizhgo_car.D221500540;D221500540;PLOUBALAY Zone Artisanale;22209;Beaussais-sur-Mer;-2.1308615;48.56914
48.10481427349316, -1.7406482261272735;"{""coordinates"": [-1.740648226127274, 48.10481427349316], ""type"": ""Point""}";arret_logique_reseau_breizhgo_car.D35ARCOM@RNTROI;D35ARCOM@RNTROI;Vezin Trois Marches;35353;Vezin-le-Coquet;-1.74065;48.105
47.75807484129724, -2.780066886483656;"{""coordinates"": [-2.780066886483656, 47.75807484129724], ""type"": ""Point""}";arret_logique_reseau_breizhgo_car.DREGLRRNS:ST:LOP6A1;DREGLRRNS:ST:LOP6A1;LOCMARIA GRAND CHAMP_Collec;56115;Locmaria-Grand-Champ;-2.7804322;47.757977
48.10743391402671, -1.6749937949699616;"{""coordinates"": [-1.674993794969962, 48.10743391402671], ""type"": ""Point""}";arret_logique_reseau_breizhgo_car.D35RNTNB1;D35RNTNB1;Rennes/ Liberté TNB;35238;Rennes;-1.67508;48.1076
47.68421790316503, -2.2139885006954843;"{""coordinates"": [-2.213988500695484, 47.68421790316503], ""type"": ""Point""}";arret_logique_reseau_breizhgo_car.D562000023;D562000023;Église;56221;Saint-Jacut-les-Pins;-2.214087;47.684277
48.401431519037416, -4.501310353260678;"{""coordinates"": [-4.501310353260678, 48.401431519037416], ""type"": ""Point""}";arret_logique_reseau_breizhgo_car.D29500303;D29500303;Kermenguy;29019;Brest;-4.50165;48.40163
48.190459279447914, -2.1876020842500203;"{""coordinates"": [-2.18760208425002, 48.190459279447914], ""type"": ""Point""}";arret_logique_reseau_breizhgo_car.D221501162;D221501162;ST MEEN LE GRAND Rue du Chanoine Bouffort;35297;Saint-Méen-le-Grand;-2.187602;48.19049
48.511211544549546, -2.510982688600028;"{""coordinates"": [-2.510982688600028, 48.511211544549546], ""type"": ""Point""}";arret_logique_reseau_breizhgo_car.D221501221;D221501221;ST AARON Coquelin;22093;Lamballe-Armor;-2.5109828;48.51121
48.5110846908496, -2.4877350704999923;"{""coordinates"": [-2.487735070499992, 48.5110846908496], ""type"": ""Point""}";arret_logique_reseau_breizhgo_car.D221501218;D221501218;Saint-Aaron Centre;22093;Lamballe-Armor;-2.487735;48.511086
48.51206456734954, -2.775302808299983;"{""coordinates"": [-2.775302808299983, 48.51206456734954], ""type"": ""Point""}";arret_logique_reseau_breizhgo_car.D221501024;D221501024;ST BRIEUC Etb M-Balavenne;22278;Saint-Brieuc;-2.775303;48.512066
47.810189009552275, -2.3869356116350504;"{""coordinates"": [-2.38693561163505, 47.810189009552275], ""type"": ""Point""}";arret_logique_reseau_breizhgo_car.D562000243;D562000243;Marché;56124;Malestroit;-2.3869758;47.810207
48.405770093868256, -4.484820845482805;"{""coordinates"": [-4.484820845482805, 48.405770093868256], ""type"": ""Point""}";arret_logique_reseau_breizhgo_car.D29500299;D29500299;Kerichen Lycée;29019;Brest;-4.4847994;48.40639
48.34202471040058, -1.290027334227161;"{""coordinates"": [-1.290027334227161, 48.34202471040058], ""type"": ""Point""}";arret_logique_reseau_breizhgo_car.D356473;D356473;ROMAGNE Les Estuaires;35243;Romagné;-1.2900274;48.342026
47.70310184588127, -2.9284537578816066;"{""coordinates"": [-2.928453757881607, 47.70310184588127], ""type"": ""Point""}";arret_logique_reseau_breizhgo_car.D562000050;D562000050;Mériadec Kerhouil;56175;Plumergat;-2.9284563;47.703087
48.48000860640679, -4.336784990106914;"{""coordinates"": [-4.336784990106914, 48.48000860640679], ""type"": ""Point""}";arret_logique_reseau_breizhgo_car.D29505824;D29505824;Bourg;29268;Saint-Thonan;-4.336643;48.479996
47.7960275301022, -4.280422924287366;"{""coordinates"": [-4.280422924287366, 47.7960275301022], ""type"": ""Point""}";arret_logique_reseau_breizhgo_car.D29501618;D29501618;Place de la Petite Sole;29072;Le Guilvinec;-4.280538;47.795986
48.50286797565706, -4.425436170292307;"{""coordinates"": [-4.425436170292307, 48.50286797565706], ""type"": ""Point""}";arret_logique_reseau_breizhgo_car.D29503058;D29503058;Bourg;29160;Plabennec;-4.4253798;48.50307
48.354734946310366, -1.2099527354436501;"{""coordinates"": [-1.20995273544365, 48.354734946310366], ""type"": ""Point""}";arret_logique_reseau_breizhgo_car.D352834;D352834;FOUGERES Château;35115;Fougères;-1.2102385;48.354668
48.11416613719955, -1.6219485410706291;"{""coordinates"": [-1.621948541070629, 48.11416613719955], ""type"": ""Point""}";arret_logique_reseau_breizhgo_car.D35704;D35704;Cesson-Sévigné/Taillis;35051;Cesson-Sévigné;-1.62189;48.114147
47.95080801877557, -4.023383993003156;"{""coordinates"": [-4.023383993003156, 47.95080801877557], ""type"": ""Point""}";arret_logique_reseau_breizhgo_car.D29505574;D29505574;Croas Kerhornou;29247;Saint-Évarzec;-4.0233135;47.95079
48.06175503044282, -1.5243828206962005;"{""coordinates"": [-1.5243828206962, 48.06175503044282], ""type"": ""Point""}";arret_logique_reseau_breizhgo_car.D351509;D351509;Domloup/Centre;35099;Domloup;-1.524217;48.06204
48.523182107740574, -2.001768898780893;"{""coordinates"": [-2.001768898780893, 48.523182107740574], ""type"": ""Point""}";arret_logique_reseau_breizhgo_car.D221500812;D221500812;PLOUER Coll. Val de Rance;22213;Plouër-sur-Rance;-2.0017009;48.52319
47.86999569909058, -4.236328131622177;"{""coordinates"": [-4.236328131622177, 47.86999569909058], ""type"": ""Point""}";arret_logique_reseau_breizhgo_car.D29503585;D29503585;Le Hellen-Canapé;29174;Plonéour-Lanvern;-4.2363586;47.870136
48.29696394140046, -1.9437461570517465;"{""coordinates"": [-1.943746157051746, 48.29696394140046], ""type"": ""Point""}";arret_logique_reseau_breizhgo_car.D35BECCE1;D35BECCE1;Bécherel/Centre;35022;Bécherel;-1.94378;48.297
48.44747016020091, -4.760293282813431;"{""coordinates"": [-4.760293282813431, 48.44747016020091], ""type"": ""Point""}";arret_logique_reseau_breizhgo_car.D29502067;D29502067;Place du Bourg;29098;Lampaul-Plouarzel;-4.760279;48.44752
48.040528324603, -1.4907391378275494;"{""coordinates"": [-1.490739137827549, 48.040528324603], ""type"": ""Point""}";arret_logique_reseau_breizhgo_car.D351889;D351889;Châteaugiron/La Cigogne;35069;Châteaugiron;-1.49058;48.040516
48.48908119332632, -2.0377665547166774;"{""coordinates"": [-2.037766554716677, 48.48908119332632], ""type"": ""Point""}";arret_logique_reseau_breizhgo_car.D221501201;D221501201;ST SAMSON Zone Artisanale;22327;Saint-Samson-sur-Rance;-2.0391645;48.489147
48.550741383249814, -4.541740001699969;"{""coordinates"": [-4.541740001699969, 48.550741383249814], ""type"": ""Point""}";arret_logique_reseau_breizhgo_car.D29506298;D29506298;Joseph Mouden;29290;Tréglonou;-4.54174;48.550743
47.96214134466449, -1.5082361373791355;"{""coordinates"": [-1.508236137379136, 47.96214134466449], ""type"": ""Point""}";arret_logique_reseau_breizhgo_car.D351232;D351232;Janzé/Gendarmerie;35136;Janzé;-1.508221;47.96211
47.80992483053734, -1.9466955268001287;"{""coordinates"": [-1.946695526800129, 47.80992483053734], ""type"": ""Point""}";arret_logique_reseau_breizhgo_car.D351360;D351360;Pipriac/Champ de Foire;35219;Pipriac;-1.946609;47.810017
47.85650530414271, -3.864528723540807;"{""coordinates"": [-3.864528723540807, 47.85650530414271], ""type"": ""Point""}";arret_logique_reseau_breizhgo_car.D29506336;D29506336;Kerouel;29293;Trégunc;-3.8636427;47.856407
48.48366156510337, -2.577544159197879;"{""coordinates"": [-2.577544159197879, 48.48366156510337], ""type"": ""Point""}";arret_logique_reseau_breizhgo_car.D221500116;D221500116;Belle Ville;22044;Coëtmieux;-2.5775476;48.483654
48.04858732530085, -1.928340619716969;"{""coordinates"": [-1.928340619716969, 48.04858732530085], ""type"": ""Point""}";arret_logique_reseau_breizhgo_car.D35STUCOSS1;D35STUCOSS1;St Thurial /Cossinade;35319;Saint-Thurial;-1.92833;48.0486
48.017191415131975, -2.169934684156968;"{""coordinates"": [-2.169934684156968, 48.017191415131975], ""type"": ""Point""}";arret_logique_reseau_breizhgo_car.D35PAICE1;D35PAICE1;Paimpont/ Centre;35211;Paimpont;-2.16988;48.0172
48.365094372140376, -3.7132176442206495;"{""coordinates"": [-3.713217644220649, 48.365094372140376], ""type"": ""Point""}";arret_logique_reseau_breizhgo_car.D29501828;D29501828;La Coudraie;29227;Poullaouen;-3.71326;48.365177
48.6060711760169, -2.1507003669843425;"{""coordinates"": [-2.150700366984343, 48.6060711760169], ""type"": ""Point""}";arret_logique_reseau_breizhgo_car.D221500322;D221500322;Eglise;22094;Lancieux;-2.1507106;48.60607
47.87307333492452, -3.0207779364117897;"{""coordinates"": [-3.02077793641179, 47.87307333492452], ""type"": ""Point""}";arret_logique_reseau_breizhgo_car.DREGLRRNS:BAU1A1;DREGLRRNS:BAU1A1;Place du Champ de Foire;56010;Baud;-3.0207374;47.87299
48.10900302941713, -1.6979423469858483;"{""coordinates"": [-1.697942346985848, 48.10900302941713], ""type"": ""Point""}";arret_logique_reseau_breizhgo_car.D35RNLOR1;D35RNLOR1;Rennes /Guilloux -Lorient;35238;Rennes;-1.69796;48.1091
48.580154639732086, -2.058940132700772;"{""coordinates"": [-2.058940132700772, 48.580154639732086], ""type"": ""Point""}";arret_logique_reseau_breizhgo_car.D35PLTMAI1;D35PLTMAI1;Pleurtuit /Mairie;35228;Pleurtuit;-2.05888;48.5799
48.30917328698619, -1.8220296243337182;"{""coordinates"": [-1.822029624333718, 48.30917328698619], ""type"": ""Point""}";arret_logique_reseau_breizhgo_car.D35TINBESN1;D35TINBESN1;Tinténiac/ La Besnelais;35337;Tinténiac;-1.82195;48.3092
48.5791682606463, -2.5629716190323877;"{""coordinates"": [-2.562971619032388, 48.5791682606463], ""type"": ""Point""}";arret_logique_reseau_breizhgo_car.D221500859;D221500859;Dahouët Le Port;22186;Pléneuf-Val-André;-2.562996;48.57917
47.81734935144117, -2.812164296574013;"{""coordinates"": [-2.812164296574013, 47.81734935144117], ""type"": ""Point""}";arret_logique_reseau_breizhgo_car.DREGLRRNS:COL7B1;DREGLRRNS:COL7B1;Place Villa Vicentina;56042;Colpo;-2.8121;47.81737
48.25733457340053, -1.516267788232871;"{""coordinates"": [-1.516267788232871, 48.25733457340053], ""type"": ""Point""}";arret_logique_reseau_breizhgo_car.D352824;D352824;ERCE-PRES-LIFFRE Bourg;35107;Ercé-près-Liffré;-1.5162714;48.257225
48.57296619910142, -4.582919948925859;"{""coordinates"": [-4.582919948925859, 48.57296619910142], ""type"": ""Point""}";arret_logique_reseau_breizhgo_car.D29502406;D29502406;Prat ar Coum;29117;Lannilis;-4.58281;48.57293
48.27676538407925, -4.493196251971644;"{""coordinates"": [-4.493196251971644, 48.27676538407925], ""type"": ""Point""}";arret_logique_reseau_breizhgo_car.D29502448;D29502448;Le Fret Poteau;29120;Lanvéoc;-4.493389;48.276943
47.93664746690754, -4.0229209873236655;"{""coordinates"": [-4.022920987323666, 47.93664746690754], ""type"": ""Point""}";arret_logique_reseau_breizhgo_car.D29505517;D29505517;Bourg-Mairie;29247;Saint-Évarzec;-4.0229077;47.93664
48.24546986045586, -3.344288303508054;"{""coordinates"": [-3.344288303508054, 48.24546986045586], ""type"": ""Point""}";arret_logique_reseau_breizhgo_car.D221500974;D221500974;Lanhellen;22266;Rostrenen;-3.3441048;48.245483
48.54538285058957, -2.2296235717848;"{""coordinates"": [-2.2296235717848, 48.54538285058957], ""type"": ""Point""}";arret_logique_reseau_breizhgo_car.D221501140;D221501140;ST LORMEL Eglise;22311;Saint-Lormel;-2.2297165;48.545475
48.56969809112699, -2.817712478467315;"{""coordinates"": [-2.817712478467315, 48.56969809112699], ""type"": ""Point""}";arret_logique_reseau_breizhgo_car.D221500806;D221500806;Centre;22251;Pordic;-2.817647;48.569683
47.554027503642786, -2.554596905712947;"{""coordinates"": [-2.554596905712947, 47.554027503642786], ""type"": ""Point""}";arret_logique_reseau_breizhgo_car.D562000049;D562000049;Requerio;56002;Ambon;-2.554647;47.553993
48.781814600851376, -3.1271171822999806;"{""coordinates"": [-3.127117182299981, 48.781814600851376], ""type"": ""Point""}";arret_logique_reseau_breizhgo_car.D221500719;D221500719;Kergruyant;22196;Pleudaniel;-3.1271172;48.781815
47.91672186215025, -3.3382481960210235;"{""coordinates"": [-3.338248196021024, 47.91672186215025], ""type"": ""Point""}";arret_logique_reseau_breizhgo_car.D562000489;D562000489;Cimetière;56166;Plouay;-3.3382196;47.916668
47.66599391369294, -2.7948964877958913;"{""coordinates"": [-2.794896487795891, 47.66599391369294], ""type"": ""Point""}";arret_logique_reseau_breizhgo_car.D562000013;D562000013;Kergrain;56260;Vannes;-2.7947953;47.666176
48.529333068932566, -2.0052983296413;"{""coordinates"": [-2.0052983296413, 48.529333068932566], ""type"": ""Point""}";arret_logique_reseau_breizhgo_car.D221500810;D221500810;PLOUER Coll. St Stanislas;22213;Plouër-sur-Rance;-2.005312;48.52937
47.970455046243124, -3.9738840108290496;"{""coordinates"": [-3.97388401082905, 47.970455046243124], ""type"": ""Point""}";arret_logique_reseau_breizhgo_car.D29505924;D29505924;Le Roudou;29272;Saint-Yvi;-3.973897;47.970455
48.33507125386096, -4.286901635783607;"{""coordinates"": [-4.286901635783607, 48.33507125386096], ""type"": ""Point""}";arret_logique_reseau_breizhgo_car.D29502668;D29502668;Prat an Dour;29137;Logonna-Daoulas;-4.2878633;48.334747
47.80663640219619, -3.0106533093970427;"{""coordinates"": [-3.010653309397043, 47.80663640219619], ""type"": ""Point""}";arret_logique_reseau_breizhgo_car.D562000514;D562000514;Route de Kerdonio;56031;Camors;-3.0105488;47.80667
48.53302181200876, -2.4151791978320336;"{""coordinates"": [-2.415179197832034, 48.53302181200876], ""type"": ""Point""}";arret_logique_reseau_breizhgo_car.D221500301;D221500301;St Gueltas;22077;Hénansal;-2.415161;48.532997
48.49704042304951, -2.66394800829998;"{""coordinates"": [-2.66394800829998, 48.49704042304951], ""type"": ""Point""}";arret_logique_reseau_breizhgo_car.D221501356;D221501356;Château;22081;Hillion;-2.663948;48.49704
